name,address,phone,google_logo_url,type,latitude,longitude,Full Address
EducraftWorld,"75, Sijuwola street, Lagos, Lagos, Nigeria",2.34708E+12,https://www.businesslist.com.ng/img/ng/m/_1583954369-12-educraftworld.gif,others,6.503688878,3.31356408,"Sijuwola Street, Oshodi/Isolo, Lagos, 102102, Nigeria"
Lensol Nigeria Limited / G-Trac Services Limited,"32 okota road, Lagos, Lagos, Nigeria",8033346418,https://www.businesslist.com.ng/img/ng/z/_1502876904_51293.png,others,6.508135706,3.321943865,"Okota Road, Oshodi/Isolo, Lagos, 102102, Nigeria"
Fiberone Broadband,"14, Allen Avenue, Ikeja, Lagos State, Nigeria",+234 908 798 1900,https://www.businesslist.com.ng/img/ng/d/_1552649725-83-fiberone-broadband.gif,others,6.60163849,3.352051473,"Allen Avenue, Oregun, Alausa, Ikeja, Lagos, 100282, Nigeria"
Afrinvest West Africa Limited.,"27, Gerrard Road, Ikoyi, Lagos, Lagos, Nigeria",+234 1 2701680,https://www.businesslist.com.ng/img/ng/z/_1455714970_61579.jpg,others,6.459977065,3.434009156,"Gerrard Road, Ikoyi, Falomo, Eti Osa, Lagos, 101222, Nigeria"
Softamos Resources,"53 Dopemu Road Agege Lagos, Nigeria",7033225021,https://www.businesslist.com.ng/img/ng/n/_1425107575-52-softamos-resources.png,others,6.617354627,3.312872886,"Dopemu Road, Akowonjo, Agege, Lagos, 100276, Nigeria"
Earn Money Kit,"Lagos, Nigeria",8051726017,https://www.businesslist.com.ng/img/ng/s/_1467921120-37-pathealth.jpg,others,6.4550575,3.3941795,"Lagos, Lagos Island, Lagos, 100242, Nigeria"
Librazain Entp Ltd,"17, Odewale street, Alausa, Lagos, Lagos, Nigeria",8167703168,https://www.businesslist.com.ng/img/ng/h/_1560250562-19-librazain-entp-ltd.png,others,6.611226236,3.355857412,"Odewale Street, res1, Oregun, Alausa, Ikeja, Lagos, 100581, Nigeria"
Stallion Group of Companies,"179, Akin Adesola street, Victoria Island Lagos, Nigeria",+234 1 261 1974,https://www.businesslist.com.ng/img/ng/b/_1543244110-44-stallion-group-of-companies.jpg,others,6.430785273,3.423977814,"Akin Adesola Street, Victoria Island, Itirin, Eti Osa, Lagos, 500001, Nigeria"
Tolaram Group,"44, Eric Moore Road, Surulere, Lagos, Lagos, Nigeria",+234 805 509 6600,https://www.businesslist.com.ng/img/ng/g/_1605808876-90-tolaram-group.png,others,6.483723458,3.357468095,"Eric Moore Road, Surulere, Iganmu, Surulere, Lagos, 102215, Nigeria"
Delta State Liaison Office,"19 Karimu Kotun St, Victoria Island, Lagos, Nigeria",+234 9 314 4371,https://www.businesslist.com.ng/img/ng/j/_1606982005-20-delta-state-liaison-office.png,others,6.427412198,3.425622485,"Karimu Kotun Street, Victoria Island, Itirin, Eti Osa, Lagos, 500001, Nigeria"
Haier Thermocool (Showroom),"26, Randle Avenue, Surulere, Lagos, Lagos, Nigeria",+234 803 482 6206,https://www.businesslist.com.ng/img/ng/h/_1604944187-55-haier-thermocool-showroom.jpg,others,6.508461695,3.356957731,"Randle Avenue, Surulere, Lagos, 102215, Nigeria"
brvcase,"70 Palm Avenue, Mushin 110011, Lagos, Nigeria",0802 718 0715,https://www.businesslist.com.ng/img/ng/x/_1695940878-38-brvcase.png,others,6.53630584,3.353640152,"Palm Avenue, Mushin, Lagos, 100231, Nigeria"
Chateau Royal Real Estate,"33B Akin Adesola St, Victoria Island 106104, Lagos, Nigeria",+234 08090 194 101,https://www.businesslist.com.ng/img/ng/d/_1695940827-46-chateau-royal-real-estate.jpg,others,6.43790665,3.4247131,"Akin Adesola Street, Victoria Island, Itirin, Eti Osa, Lagos, 500001, Nigeria"
"Command Secondary, School, Ipaja. Lagos State","Alimosho, Lagos, Nigeria",+234 1 700 0969,https://www.businesslist.com.ng/img/ng/b/_1605818926-66-command-secondary-school-ipaja-lagos-state.jpg,others,6.58438825,3.257587569,"Alimosho, Lagos, 100276, Nigeria"
DropBuddies,"14 Idowu Martins St, Victoria Island 106104, Lagos, Nigeria",2.3491E+12,https://www.businesslist.com.ng/img/ng/f/_1695941757-64-dropbuddies.jpg,others,6.432899708,3.420003218,"Idowu Martins Street, Victoria Island, Eti Osa, Lagos, 500001, Nigeria"
Elalan,"9 Macgregor Rd, Ikoyi 106104, Lagos, Nigeria",+234 815 096 5387,https://www.businesslist.com.ng/img/ng/m/_1695946098-42-elalan.png,others,6.451950376,3.422848566,"Macgregor Road, Ikoyi, Falomo, Eti Osa, Lagos, 101222, Nigeria"
Enterscale,"Lagos, Nigeria",+234 803 200 0247,https://www.businesslist.com.ng/img/ng/n/_1695940769-87-enterscale.jpg,others,6.4550575,3.3941795,"Lagos, Lagos Island, Lagos, 100242, Nigeria"
Evaloaded,"Awolowo Rd, Ikoyi 101233, Lagos, Nigeria",0814 828 7274,https://www.businesslist.com.ng/img/ng/g/_1695940920-98-evaloaded.jpg,others,6.444423183,3.424703363,"Awolowo Road, Ikoyi, Falomo, Eti Osa, Lagos, 500001, Nigeria"
Fintech Associates,"18 Olusegun Aina St, Parkview Estate 106104, Lagos, Nigeria",-70883896,https://www.businesslist.com.ng/img/ng/e/_1695946035-42-fintech-associates.png,others,6.463602474,3.443645571,"Olusegun Aina Street, Parkview Estate, Falomo, Eti Osa, Lagos, 105102, Nigeria"
Johnson & Johnson Nig. Ltd.,"2 Commercial Rd. Apapa Lagos , Nigeria",+234 1 587 6319,https://www.businesslist.com.ng/img/ng/d/_1605556367-77-johnson-johnson-nig-ltd.png,others,6.438408606,3.372812601,"Commercial Road, Ilado, Apapa, Lagos, 101001, Nigeria"
Oguntoye & Oguntoye,"12A Sir Samuel Manuwa St, Victoria Island 106104, Lagos, Nigeria",+234 803 552 5261,https://www.businesslist.com.ng/img/ng/a/_1695946088-46-oguntoye-oguntoye.jpg,others,6.43910935,3.436857,"Sir Samuel Manuwa Street, Victoria Island, Itirin, Eti Osa, Lagos, 101243, Nigeria"
Royal Salt Ltd,"10 Adele Rd. Apapa Lagos , Nigeria",+234 1 545 1512,https://www.businesslist.com.ng/img/ng/k/_1606408346-47-royal-salt-ltd.jpg,others,6.440446431,3.369504718,"Adele Road, Ilado, Apapa, Lagos, 101001, Nigeria"
Savante Consulting,"6 Broad St, Lagos Island 100114, Lagos, Nigeria",+234 12 91 6035,https://www.businesslist.com.ng/img/ng/b/_1695941888-72-savante-consulting.jpg,others,6.44903505,3.394557458,"Old Government Printing Press, 6, Broad Street, Lagos, Lagos Island, Lagos, 100242, Nigeria"
Scib Nigeria Insurance Brokers,"64 Adeniran Ogunsanya Street, Surulere, Lagos, Nigeria",+234 1 4615234 5,https://www.businesslist.com.ng/img/ng/h/_1695940301-36-scib-nigeria-insurance-brokers.jpg,others,6.494317491,3.357352432,"Adeniran Ogunsanya Street, Surulere, Animashawun, Surulere, Lagos, 102215, Nigeria"
Sendchamp,"142 Ahmadu Bello Way, Victoria Island 101241, Lagos, Nigeria",+234(0) 18880261,https://www.businesslist.com.ng/img/ng/e/_1695940699-48-sendchamp.jpg,others,6.422556785,3.411398718,"Ahmadu Bello Way, Victoria Island, Eko Atlantic, Eti Osa, Lagos, 101241, Nigeria"
Sunflag (Nig.) Ltd.,"28 Eric Moore Rd., Iganmu, Lagos, Lagos, Nigeria",+234 1 583 0650,https://www.businesslist.com.ng/img/ng/a/_1618257626-28-sunflag-nig-ltd.png,others,6.483723458,3.357468095,"Eric Moore Road, Surulere, Iganmu, Surulere, Lagos, 102215, Nigeria"
Task Systems,"NIGERIA, Lagos",(234) 262 60 56,https://www.businesslist.com.ng/img/ng/k/_1695940413-81-task-systems.jpg,others,6.4550575,3.3941795,"Lagos, Lagos Island, Lagos, 100242, Nigeria"
Terragon Group,"2 Ahmed Onibudo St, Victoria Island 106104, Lagos, Nigeria",2.34814E+12,https://www.businesslist.com.ng/img/ng/j/_1695946007-61-terragon-group.jpg,others,6.435496236,3.428422679,"Ahmed Onibudo Street, Victoria Island, Itirin, Eti Osa, Lagos, 500001, Nigeria"
Utiva,"Lagos, Nigeria",+234 806 211 1308,https://www.businesslist.com.ng/img/ng/m/_1695940996-87-utiva.jpg,others,6.4550575,3.3941795,"Lagos, Lagos Island, Lagos, 100242, Nigeria"
Yako Medical,"6 Saka Tinubu St, Victoria Island 106104, Lagos, Nigeria",2.34809E+12,https://www.businesslist.com.ng/img/ng/n/_1695941093-48-yako-medical.jpg,others,6.42707194,3.4202299,"Saka Tinubu Street, Victoria Island, Itirin, Eti Osa, Lagos, 500001, Nigeria"
Prime Span Investment Limited,"LEKKI, Lagos, Lagos, Nigeria",7037437930,,others,6.4711251,3.814750442,"Ibeju Lekki, Lagos, Nigeria"
Safetrade International Limited,"31, Princess Street, Lagos Island, Lagos, Nigeria",2.34808E+11,,others,6.460262288,3.392828069,"Princess Street, Lagos, Lagos Island, Lagos, 100242, Nigeria"
Dash Studios,"Lagos, Nigeria",2.34907E+12,,others,6.4550575,3.3941795,"Lagos, Lagos Island, Lagos, 100242, Nigeria"
Digital Reality Print Limited,"14 Ogunlana Drive, Surulere, Lagos, Nigeria",(+234-1) 2716968,,others,6.5073961,3.352604797,"Ogunlana Drive, Surulere, Lagos, 102215, Nigeria"
Dukka,"42 Saka Tinubu St, Victoria Island 101241, Lagos, Nigeria",01 887 8000,,others,6.42707194,3.4202299,"Saka Tinubu Street, Victoria Island, Itirin, Eti Osa, Lagos, 500001, Nigeria"
Esotech Integrated Nigeria,"Lagos, Lagos, Nigeria",8030543755,,others,6.4550575,3.3941795,"Lagos, Lagos Island, Lagos, 100242, Nigeria"
First Guarantee Pension Limited,"3 Idowu Martins Street, Victoria Island, Lagos, Nigeria",(+234-1) 2614313,,others,6.432899708,3.420003218,"Idowu Martins Street, Victoria Island, Eti Osa, Lagos, 500001, Nigeria"
Inspired Scoop,"Lagos, Nigeria",-2701,,others,6.4550575,3.3941795,"Lagos, Lagos Island, Lagos, 100242, Nigeria"
Autotek Pro,"Ifako-Gbagada , Lagos, Lagos, Nigeria",902156805,https://www.businesslist.com.ng/img/ng/s/_1525199575-15-autotek-pro.jpg,others,6.56086085,3.391926217,"Oke-Ifako Nursery / Primary School, 1, Alhaji Adebesin Street, Gbagada, Oworonṣoki, Kosofe, Lagos, 100234, Nigeria"
Brainy Educare,"136 Bode Thomas St, Surulere 300001, Lagos, Nigeria",+234 708 979 3568,https://www.businesslist.com.ng/img/ng/r/_1695941852-44-brainy-educare.png,others,6.488513413,3.362394746,"Bode Thomas Street, Iganmu, Surulere, Lagos, 102215, Nigeria"
Coco Grooming Centre,"57 Opebi Road, Ikeja, Lagos, Nigeria",-4979049,https://www.businesslist.com.ng/img/ng/k/_1695940323-98-coco-grooming-centre.png,others,6.585393143,3.364718386,"Opebi Road, Oshosun, Ikeja, Lagos, 100211, Nigeria"
Cocoon Homes,"26 Adetokunbo Ademola Street, Victoria Island 106104, Lagos, Nigeria",+234 809-844-5566,https://www.businesslist.com.ng/img/ng/e/_1695941689-71-cocoon-homes.jpg,others,6.43543814,3.43075788,"Adetokunbo Ademola Street, Victoria Island, Itirin, Eti Osa, Lagos, 500001, Nigeria"
DLM Capital Group,"66-68 Alexander Ave, Ikoyi 106104, Lagos, Nigeria",23415151115,https://www.businesslist.com.ng/img/ng/l/_1695945994-52-dlm-capital-group.jpg,others,6.453331288,3.447947131,"Alexander Avenue, Ikoyi, Falomo, Eti Osa, Lagos, 106104, Nigeria"
Ekiipps Tel. Sys. Ltd.,"83 Adeniyi Jones Av. Ikeja, Lagos, Nigeria",01-4930790,https://www.businesslist.com.ng/img/ng/f/_1695940448-92-ekiipps-tel-sys-ltd.png,others,6.611372248,3.345193435,"Adeniyi Jones Avenue, Alausa, Ikeja, Lagos, 100282, Nigeria"
GreenKey Facility Management Services,"17 Karimu Kotun St, Victoria Island 106104, Lagos, Nigeria",+234 909 777 3065,https://www.businesslist.com.ng/img/ng/h/_1695941704-87-greenkey-facility-management-services.jpg,others,6.427412198,3.425622485,"Karimu Kotun Street, Victoria Island, Itirin, Eti Osa, Lagos, 500001, Nigeria"
Inspired Scoop Digital Services,"Lagos, Nigeria",,,others,6.4550575,3.3941795,"Lagos, Lagos Island, Lagos, 100242, Nigeria"
Management Transformation,"Unit 8, Udi St, Ikoyi 106104, Lagos, Nigeria",+234 704 705 7822,https://www.businesslist.com.ng/img/ng/n/_1695946013-54-management-transformation.jpg,others,6.464042572,3.42445351,"Udi Street, Osborne Foreshore Estate, Ikoyi, Falomo, Eti Osa, Lagos, 101222, Nigeria"
SB Telecoms & device,"Tafawa Balewa Rd, Lagos Island 102273, Lagos, Nigeria",+234 811 367 7777,https://www.businesslist.com.ng/img/ng/g/_1695946069-37-sb-telecoms-device.png,others,6.446114251,3.400352114,"Tafawa Balewa Square, Lagos, Lagos Island, Lagos, 100242, Nigeria"
Spaceba,"Plot 7 Abagbon Cl, Victoria Island 106104, Lagos, Nigeria",0906 000 3480,https://www.businesslist.com.ng/img/ng/l/_1695941045-31-spaceba.png,others,6.4285226,3.417494031,"Abagbon Close, Victoria Island, Eti Osa, Lagos, 101241, Nigeria"
Teach For Nigeria,"35 Moloney St, Lagos Island 102273, Lagos, Nigeria",+234 909 860 0713,https://www.businesslist.com.ng/img/ng/c/_1695941089-73-teach-for-nigeria.jpg,others,6.448050359,3.405167415,"Moloney Street, Lagos, Lagos Island, Lagos, 101222, Nigeria"
Webkraft Academy,"80 Adetokunbo Ademola Street, Victoria Island 106104, Lagos, Nigeria",-3346,https://www.businesslist.com.ng/img/ng/g/_1695941694-76-webkraft-academy.jpg,others,6.4259352,3.428603061,"Maison Fahrenheit, 80, Adetokunbo Ademola Street, Victoria Island, Itirin, Eti Osa, Lagos, 500001, Nigeria"
Garmspot,"2 Alexander Ave, Ikoyi 106104, Lagos, Nigeria",,https://www.businesslist.com.ng/img/ng/a/_1695941089-79-garmspot.jpg,others,6.453331288,3.447947131,"Alexander Avenue, Ikoyi, Falomo, Eti Osa, Lagos, 106104, Nigeria"
Abdak Venture,"71, Princess Street, Lagos Island, Nigeria",8095154521,,others,6.461508159,3.39304277,"Princess Street, Lagos, Lagos Island, Lagos, 100242, Nigeria"
Bare Communications,"11, Oguntolu Street, Shomolu, Lagos, Nigeria",8053047452,,others,6.536788968,3.370681852,"Oguntolu Street, Somolu, Shomolu, Lagos, 100231, Nigeria"
Business Empowerment Cooperative Society Limited,"2, Beecroft, Lagos Island, Nigeria",7031615938,,others,6.452321747,3.400785853,"Beecroft street, Lagos, Lagos Island, Lagos, 100242, Nigeria"
Daid Group Nigeria Limited,"Oshodi Isolo, Lagos, Lagos, Nigeria",8037185913,,others,6.53984935,3.312384019,"Oshodi/Isolo, Lagos, 100263, Nigeria"
Datalex Media Services,"123, Ojuelegba Road, Surulere, Lagos, Nigeria",7030097972,,others,6.509511059,3.366432896,"Ojuelegba Road, Surulere, Lagos, 102215, Nigeria"
Datablue Systems Limited,"75, Ojuelegba Road-Surulere, Surulere, Surulere, Lagos, Nigeria",8036124282,,others,6.509511059,3.366432896,"Ojuelegba Road, Surulere, Lagos, 102215, Nigeria"
Dataccess,"34, Road 12, Lekki Estate, Eti Osa, Lagos, Nigeria",8033322556,,others,6.46471415,3.6043913,"Road 12, Lekki Gardens Phase 3 Estate, Eti Osa, Lagos, 101245, Nigeria"
Defture Nigeria Limited,"34, Awolowo Way, Ikeja, Lagos, Nigeria",8077706964,,others,6.60776661,3.350015044,"Obafemi Awolowo Way, Alausa, Ikeja, Lagos, 100282, Nigeria"
Driving Solutions Nigeria Limited,"5A, Aderibigbe Shitta, Ikeja, Lagos, Nigeria",18418271,,others,6.575947932,3.367932113,"Aderibigbe Shitta Street, Onigbongbo, Ikeja, Lagos, 100211, Nigeria"
Erosoft Technologies Limited,"18, John Olugbo Street, Ikeja, Lagos, Nigeria",8034279824,,others,6.599387883,3.347117244,"John Olugbo Street, Alausa, Ikeja, Lagos, 100282, Nigeria"
Financial Advisory Legal Consultants Limited,"47, Raymond Njoku Street, Ikoyi, Eti Osa, Lagos, Lagos, Nigeria",8027775051,,others,6.442343536,3.422506379,"Raymond Njoku Street, Ikoyi, Falomo, Eti Osa, Lagos, 101241, Nigeria"
Goshen Bliss Limited,"70b Apapa Road Ebute Metta Lagos, Ebute Metta, Lagos Mainland, Nigeria",8069436275,,others,6.481529778,3.37890577,"Apapa Road, Iddo, Ebute-Metta, Lagos Mainland, Lagos, 104233, Nigeria"
Haggai Mortgage Bank,"119 Bode Thomas St, Surulere 101211, Lagos, Nigeria",-5909,,others,6.490106136,3.354819699,"Bode Thomas Street, Surulere, Animashawun, Surulere, Lagos, 102215, Nigeria"
Hogg Engineering,"31, Idimu Road, Alimosho, Lagos, Nigeria",8124226632,,others,6.563185321,3.274572259,"Idimu - Ikotun Road, Idimu, Alimosho, Lagos, 100263, Nigeria"
IHS Towers Nigeria,"999F Idejo St, Eti-Osa 106104, Lagos, Nigeria",0700 077 7777,,others,6.42706935,3.412085489,"Idejo Street, Victoria Island, Eti Osa, Lagos, 101241, Nigeria"
Images Sms Nigeria,"39, Ilaje Road, Bariga, Shomolu, Lagos, Nigeria",8033886650,,others,6.530699776,3.395154083,"Ilaje Road, Bariga, Shomolu, Lagos, 100231, Nigeria"
Isatong Doc,"29 Adeniran Ogunsanya, Lagos, Lagos, Nigeria",+234 806 310 2292,https://www.businesslist.com.ng/img/ng/n/_1495007319_45897.png,others,6.494317491,3.357352432,"Adeniran Ogunsanya Street, Surulere, Animashawun, Surulere, Lagos, 102215, Nigeria"
Kaden International Limited,"19, Agege Motor Road, Ikeja, Lagos, Nigeria",8033339638,,others,6.552375057,3.353210289,"Agege Motor Road, Tinubu, Ikeja, Mushin, Lagos, 100271, Nigeria"
Krystal Top Sms And Gadgets,"121, Obafemi Awolowo Way, Ikeja, Lagos, Nigeria",7030305939,,others,6.602383275,3.344455913,"Obafemi Awolowo Way, Alausa, Ikeja, Lagos, 100282, Nigeria"
Kweek Sms,"16, Fagbile Street, Surulere, Lagos, Nigeria",8027176720,,others,6.508055866,3.365866297,"Fagbile Street, Surulere, Lagos, 102215, Nigeria"
Mabon Limited,"29 Sanusi Fafunwa Street, Victoria Island, Lagos, Nigeria",(+234-1) 2624880,,others,6.431168163,3.427230749,"Sanusi Fafunwa Street, Victoria Island, Itirin, Eti Osa, Lagos, 500001, Nigeria"
Maxdan Sms,"79, Randle Avenue, Surulere, Lagos, Nigeria",8037586297,,others,6.508461695,3.356957731,"Randle Avenue, Surulere, Lagos, 102215, Nigeria"
Mobile Automated Systems,"6, Adepele Street, Computer Village, Ikeja, Lagos, Nigeria",8077701057,,others,6.595597741,3.339391893,"Adepele Street, Computer Village, Ikeja, Lagos, 100282, Nigeria"
Naijalink Limited,"2-4 Moseley Rd, Ikoyi 106104, Lagos, Nigeria",+234 810-632-8606,,others,6.45549785,3.44430215,"2-4, Moseley Road, Ikoyi, Falomo, Eti Osa, Lagos, 106104, Nigeria"
Rhema Media Services,"Bode Thomas, Surulere, Surulere, Lagos, Nigeria",8036395493,,others,6.490106136,3.354819699,"Bode Thomas Street, Surulere, Animashawun, Surulere, Lagos, 102215, Nigeria"
Spread Media Bulk Sms Service,"15, Saka Tinubu Street, Eti Osa, Lagos, Nigeria",8103802890,,others,6.42707194,3.4202299,"Saka Tinubu Street, Victoria Island, Itirin, Eti Osa, Lagos, 500001, Nigeria"
Squareme,"45 Bourdillon Rd, Ikoyi 106104, Lagos, Nigeria",01 330 291,,others,6.44669242,3.444498588,"Bourdillon Road, Ikoyi, Falomo, Eti Osa, Lagos, 106104, Nigeria"
United African Insurance Brokers Limited,"33B, Bode Thomas Street, Surulere, Lagos, Nigeria",(+234-1) 7738986,,others,6.490106136,3.354819699,"Bode Thomas Street, Surulere, Animashawun, Surulere, Lagos, 102215, Nigeria"
Wellbeing Foundation,"30 Saka Tinubu, Victoria Island, Lagos, Nigeria",(+234-1) 2696935,,others,6.42707194,3.4202299,"Saka Tinubu Street, Victoria Island, Itirin, Eti Osa, Lagos, 500001, Nigeria"
World Receiver Cargo Services Limited,"1, Modupe Street, Ikeja, Lagos, Nigeria",8036683166,,others,6.601041041,3.336953566,"Modupe Street, Ikeja, Lagos, 100282, Nigeria"
Eleganza,"Ikeja , Lagos, Lagos, Nigeria",+234 1 4724216,https://www.businesslist.com.ng/img/ng/g/_1726036127-45-eleganza.jpg,others,6.5960605,3.340787,"Ikeja, Lagos, Nigeria"
Expensive World Entertainment,"Agbara ogun state, Lagos, Nigeria",7063061420,https://www.businesslist.com.ng/img/ng/s/_1478543283-16-expensive-world-entertainment.jpg,others,6.498206781,3.086402402,"Ota-Agbara Rd, Badagry, Lagos, Nigeria"
Arkland Properties,"Lagos, Nigeria",+234 906 254 7100,https://www.businesslist.com.ng/img/ng/a/_1695941754-67-arkland-properties.jpg,others,6.4550575,3.3941795,"Lagos, Lagos Island, Lagos, 100242, Nigeria"
Atiat Insurance Brokers,"Lagos, Nigeria",+234 802 305 0209,https://www.businesslist.com.ng/img/ng/b/_1695945941-99-atiat-insurance-brokers.jpg,others,6.4550575,3.3941795,"Lagos, Lagos Island, Lagos, 100242, Nigeria"
Bazar NG,"Lagos, Nigeria",2.34804E+12,https://www.businesslist.com.ng/img/ng/f/_1695941678-43-bazar-ng.png,others,6.4550575,3.3941795,"Lagos, Lagos Island, Lagos, 100242, Nigeria"
Blynk Ecommce Platform,"Lagos, Nigeria",2.34901E+12,https://www.businesslist.com.ng/img/ng/b/_1695940608-80-blynk-ecommce-platform.jpg,others,6.4550575,3.3941795,"Lagos, Lagos Island, Lagos, 100242, Nigeria"
DevCareer,"Lagos, Nigeria",+234 703 799 7865,https://www.businesslist.com.ng/img/ng/h/_1695940991-91-devcareer.jpg,others,6.4550575,3.3941795,"Lagos, Lagos Island, Lagos, 100242, Nigeria"
Enoch Diary,"Lagos, Nigeria",-7481232,https://www.businesslist.com.ng/img/ng/k/_1695941723-47-enoch-diary.png,others,6.4550575,3.3941795,"Lagos, Lagos Island, Lagos, 100242, Nigeria"
ErrandPlace,"Lagos, Nigeria",2.34803E+12,https://www.businesslist.com.ng/img/ng/b/_1695941071-77-errandplace.png,others,6.4550575,3.3941795,"Lagos, Lagos Island, Lagos, 100242, Nigeria"
FastTransacts,"Lagos, Nigeria",2.34903E+12,https://www.businesslist.com.ng/img/ng/k/_1695940810-34-fasttransacts.png,others,6.4550575,3.3941795,"Lagos, Lagos Island, Lagos, 100242, Nigeria"
focythe,"Lagos, Nigeria",+234 908 709 1927,https://www.businesslist.com.ng/img/ng/x/_1695941120-15-focythe.jpg,others,6.4550575,3.3941795,"Lagos, Lagos Island, Lagos, 100242, Nigeria"
Gyst,"Lagos, Nigeria",+234 700 000 0000,https://www.businesslist.com.ng/img/ng/n/_1695941868-49-gyst.jpg,others,6.4550575,3.3941795,"Lagos, Lagos Island, Lagos, 100242, Nigeria"
Helene,"Lagos, Nigeria",+234 7083530492,https://www.businesslist.com.ng/img/ng/s/_1695940602-45-helene.jpg,others,6.4550575,3.3941795,"Lagos, Lagos Island, Lagos, 100242, Nigeria"
Koye-Cairo Multimedia,"Lagos, Nigeria",+234 09096750450,https://www.businesslist.com.ng/img/ng/n/_1695941673-44-koye-cairo-multimedia.jpg,others,6.4550575,3.3941795,"Lagos, Lagos Island, Lagos, 100242, Nigeria"
Laduba Group of Cos.,"30, Bombay Cres., Lagos , Nigeria",01-5870700,https://www.businesslist.com.ng/img/ng/z/_1695940453-55-laduba-group-of-cos.png,others,6.441767618,3.366344373,"Bombay Crescent, Ilado, Apapa, Lagos, 101001, Nigeria"
Loggerbros,"Idimu, Lagos, Nigeria",-2553794,https://www.businesslist.com.ng/img/ng/n/_1695941071-82-loggerbros.png,others,6.5752564,3.2839038,"Idimu, Alimosho, Lagos, 100263, Nigeria"
Mega Labourers Services,"Lagos, Nigeria",+234 812 327 3306,https://www.businesslist.com.ng/img/ng/h/_1695941876-57-mega-labourers-services.jpg,others,6.4550575,3.3941795,"Lagos, Lagos Island, Lagos, 100242, Nigeria"
Micro Leasing,"Suru-lere, Lagos, Nigeria",+234 703 003 6020,https://www.businesslist.com.ng/img/ng/z/_1695945987-36-micro-leasing.png,others,6.5024582,3.3590279,"Surulere, Lagos, 102215, Nigeria"
Nigerian Institute of Management,"Victoria Island , Lagos, Nigeria",-2701203,,others,6.4300279,3.4259904,"Victoria Island, Itirin, Eti Osa, Lagos, 500001, Nigeria"
OGA Hotels,"Lagos, Nigeria",2.34818E+12,https://www.businesslist.com.ng/img/ng/k/_1695940891-30-oga-hotels.png,others,6.4550575,3.3941795,"Lagos, Lagos Island, Lagos, 100242, Nigeria"
Orixastream,"Lagos, Nigeria",-13964,https://www.businesslist.com.ng/img/ng/b/_1695940565-65-orixastream.jpg,others,6.4550575,3.3941795,"Lagos, Lagos Island, Lagos, 100242, Nigeria"
PanAfrican Capital Holdings,"Lagos, Nigeria",+ 234 1 271 6899,https://www.businesslist.com.ng/img/ng/j/_1695946067-73-panafrican-capital-holdings.jpg,others,6.4550575,3.3941795,"Lagos, Lagos Island, Lagos, 100242, Nigeria"
QatGifts,"Lagos, Nigeria",2.34906E+12,https://www.businesslist.com.ng/img/ng/b/_1695940566-87-qatgifts.png,others,6.4550575,3.3941795,"Lagos, Lagos Island, Lagos, 100242, Nigeria"
Rent Small Small,"Lagos, Nigeria",+234 (0) 70 8778 9815,https://www.businesslist.com.ng/img/ng/z/_1695941633-89-rent-small-small.jpg,others,6.4550575,3.3941795,"Lagos, Lagos Island, Lagos, 100242, Nigeria"
Risk Analyst,"Ikoyi, Lagos, Nigeria",+234 812 573 7367,https://www.businesslist.com.ng/img/ng/b/_1695946019-53-risk-analyst.png,others,6.456061,3.442218,"Ikoyi, Falomo, Eti Osa, Lagos, 106104, Nigeria"
Safi.NG,"Lagos, Nigeria",2.3491E+12,https://www.businesslist.com.ng/img/ng/e/_1695941620-70-safi-ng.png,others,6.4550575,3.3941795,"Lagos, Lagos Island, Lagos, 100242, Nigeria"
Sleekjamz NG,"Lagos, Nigeria",2.34803E+12,https://www.businesslist.com.ng/img/ng/z/_1695940898-15-sleekjamz-ng.jpg,others,6.4550575,3.3941795,"Lagos, Lagos Island, Lagos, 100242, Nigeria"
StrikeBuzz Digital,"Lagos, Nigeria",2.34704E+12,https://www.businesslist.com.ng/img/ng/h/_1695941177-71-strikebuzz-digital.png,others,6.4550575,3.3941795,"Lagos, Lagos Island, Lagos, 100242, Nigeria"
TalCube,"Lagos, Nigeria",+234 813 246 5611,https://www.businesslist.com.ng/img/ng/s/_1695940836-49-talcube.jpg,others,6.4550575,3.3941795,"Lagos, Lagos Island, Lagos, 100242, Nigeria"
The Chartered Institute of Taxation of Nigeria,"Maryland , Lagos, Nigeria",234 01 4935054,,others,6.5731894,3.3699482,"Maryland, Kosofe, Lagos, 100212, Nigeria"
The BSD Academy,"Lagos, Nigeria",+234 706 724 0619,https://www.businesslist.com.ng/img/ng/n/_1695941054-50-the-bsd-academy.jpg,others,6.4550575,3.3941795,"Lagos, Lagos Island, Lagos, 100242, Nigeria"
TopCheck,"Lagos, Nigeria",23481845196,https://www.businesslist.com.ng/img/ng/d/_1695941834-54-topcheck.png,others,6.4550575,3.3941795,"Lagos, Lagos Island, Lagos, 100242, Nigeria"
Xfests,"Lagos, Nigeria",+234 706 9611 939,https://www.businesslist.com.ng/img/ng/e/_1695940810-43-xfests.png,others,6.4550575,3.3941795,"Lagos, Lagos Island, Lagos, 100242, Nigeria"
Android Pocket,"Lagos, Nigeria",,https://www.businesslist.com.ng/img/ng/l/_1695940649-57-android-pocket.jpg,others,6.4550575,3.3941795,"Lagos, Lagos Island, Lagos, 100242, Nigeria"
Dropque,"Ikoyi, Lagos, Nigeria",,https://www.businesslist.com.ng/img/ng/r/_1695941169-34-dropque.png,others,6.456061,3.442218,"Ikoyi, Falomo, Eti Osa, Lagos, 106104, Nigeria"
Eco-Nai+,"Lagos, Nigeria",,https://www.businesslist.com.ng/img/ng/h/_1695940566-84-eco-nai.jpg,others,6.4550575,3.3941795,"Lagos, Lagos Island, Lagos, 100242, Nigeria"
Flowmono,"Lagos, Nigeria",,https://www.businesslist.com.ng/img/ng/s/_1695940634-17-flowmono.png,others,6.4550575,3.3941795,"Lagos, Lagos Island, Lagos, 100242, Nigeria"
FoodCourt,"Lagos, Nigeria",,https://www.businesslist.com.ng/img/ng/l/_1695940708-63-foodcourt.png,others,6.4550575,3.3941795,"Lagos, Lagos Island, Lagos, 100242, Nigeria"
Goldrock Standard Fibre Optical Telecom cable,"Lagos Island , Nigeria",234 12630451,,others,6.5148613,3.490866161,"Lagos Island, Lagos, Nigeria"
HENSMOR GROUP OF COMPANIES,"21 Ademola St, Ikoyi, Lagos, Nigeria",+234 1 262 5198,,others,6.441529611,3.414468279,"Ademola Street, Victoria Island, Eti Osa, Lagos, 101241, Nigeria"
Hooman ID,"Lagos, Nigeria",,https://www.businesslist.com.ng/img/ng/j/_1695940671-42-hooman-id.jpg,others,6.4550575,3.3941795,"Lagos, Lagos Island, Lagos, 100242, Nigeria"
Intron Health,"Lagos, Nigeria",,https://www.businesslist.com.ng/img/ng/n/_1695941019-27-intron-health.png,others,6.4550575,3.3941795,"Lagos, Lagos Island, Lagos, 100242, Nigeria"
She Leads Africa,"Lagos, Nigeria",,https://www.businesslist.com.ng/img/ng/r/_1695941831-18-she-leads-africa.jpg,others,6.4550575,3.3941795,"Lagos, Lagos Island, Lagos, 100242, Nigeria"
tix.africa,"Lagos, Nigeria",,https://www.businesslist.com.ng/img/ng/e/_1695941013-60-tix-africa.png,others,6.4550575,3.3941795,"Lagos, Lagos Island, Lagos, 100242, Nigeria"
Zinari Corp,"Lagos, Nigeria",,https://www.businesslist.com.ng/img/ng/s/_1695940559-79-zinari-corp.jpg,others,6.4550575,3.3941795,"Lagos, Lagos Island, Lagos, 100242, Nigeria"
Advancer™,"Lagos, Nigeria",+234 803-30144,,others,6.4550575,3.3941795,"Lagos, Lagos Island, Lagos, 100242, Nigeria"
Agovie International Trade Limited,"2, Johnson Street, Ikeja, Lagos, Nigeria",8133229720,,others,6.610746094,3.347109895,"Abba Johnson Street, Alausa, Ikeja, Lagos, 100282, Nigeria"
Ajas Decor And Renovations,"323/325, Agege Motor Road, Mushin, Lagos, Nigeria",8035534023,,others,6.552375057,3.353210289,"Agege Motor Road, Tinubu, Ikeja, Mushin, Lagos, 100271, Nigeria"
AMC,"Lagos , Nigeria",+234 (01) 461 4307,,others,6.4550575,3.3941795,"Lagos, Lagos Island, Lagos, 100242, Nigeria"
Amyvie 3D Labs,"Lagos, Nigeria",00234 907 674 5993,,others,6.4550575,3.3941795,"Lagos, Lagos Island, Lagos, 100242, Nigeria"
Ancora Global Concepts,"74 Awolowo Road, Ikoyi, Lagos, Nigeria",-7921518,,others,6.442498899,3.420563038,"Awolowo Road, Ikoyi, Falomo, Eti Osa, Lagos, 101241, Nigeria"
Bekalex Ventures,"26, Agboyi Road, Ogudu, Kosofe, Lagos, Nigeria",7085291221,,others,6.573957046,3.396464958,"Agboyi Road, Agboyi, Kosofe, Lagos, 100234, Nigeria"
Betdemand,"Lagos, Nigeria",2.34818E+12,,others,6.4550575,3.3941795,"Lagos, Lagos Island, Lagos, 100242, Nigeria"
Body Beautiful,"70 Allen Avenue, Ikeja, Lagos, Nigeria",(+234-80) 23421818,,others,6.6017618,3.3519975,"Allen Avenue, Oregun, Alausa, Ikeja, Lagos, 100282, Nigeria"
Ceelo,"Yaba, Lagos, Nigeria",+234906 000 7015,,others,6.5114693,3.3699982,"Yaba, Olajuwon Street, Tinubu, Mushin, Lagos, 102215, Nigeria"
City Gate Cafe,"36, Ayilara Street, Surulere, Lagos, Nigeria",8067833664,,others,6.508833935,3.360852319,"Ayilara Street, Surulere, Lagos, 102215, Nigeria"
CloudBox Digital,"Lagos, Nigeria",2.34806E+12,,others,6.4550575,3.3941795,"Lagos, Lagos Island, Lagos, 100242, Nigeria"
Continus,"Lagos, Nigeria",+234 8094363982,,others,6.4550575,3.3941795,"Lagos, Lagos Island, Lagos, 100242, Nigeria"
Deuelkraft Technologies Limited,"3, Adepele Street, Computer Village, Ikeja, Lagos, Nigeria",8033259060,,others,6.5956097,3.3394807,"Adepele Street, Computer Village, Ikeja, Lagos, 100282, Nigeria"
Dino Video Club,"136, Alhaji Masha Road, Surulere, Surulere, Lagos, Nigeria",7040908056,,others,6.498309557,3.35985398,"Alhaji Masha Road, Surulere, Lagos, 102215, Nigeria"
Edge360,"32, James Robertson Street, Surulere, Surulere, Lagos, Nigeria",8023222278,,others,6.503134579,3.353910917,"James Robertson Street, Surulere, Lagos, 102215, Nigeria"
Erfenis,"Lagos, Nigeria",2.34802E+12,,others,6.4550575,3.3941795,"Lagos, Lagos Island, Lagos, 100242, Nigeria"
Essien Nelson,"4 Ogunlana Drive, Surulere, Lagos, Nigeria",-82443969,,others,6.5073961,3.352604797,"Ogunlana Drive, Surulere, Lagos, 102215, Nigeria"
1004 Estates,"Lagos, Nigeria",+234 01 4652305,,others,6.4550575,3.3941795,"Lagos, Lagos Island, Lagos, 100242, Nigeria"
Ezicfantecy International,"55, Okepopo Street, Lagos Island, Nigeria",7039697681,,others,6.4559271,3.3959705,"Okepopo Street, Lagos, Lagos Island, Lagos, 100242, Nigeria"
Flyhajj.com,"Lagos, Lagos, Lagos, Nigeria",30085000000,,others,6.4550575,3.3941795,"Lagos, Lagos Island, Lagos, 100242, Nigeria"
GloballyEducated,"Lagos, Nigeria",2.3481E+12,,others,6.4550575,3.3941795,"Lagos, Lagos Island, Lagos, 100242, Nigeria"
Great And Bold Concept,"39, Opebi Road, Ikeja, Lagos, Nigeria",8035602947,,others,6.5911253,3.3597565,"Opebi Road, Oregun, Ikeja, Lagos, 100281, Nigeria"
Grenadines Homes,"Cardinal Anthony Olubunmi Okogie Rd, Eti-Osa 106104, Lekki, Lagos, Nigeria",+234 1 453 5098,https://www.businesslist.com.ng/img/ng/h/_1695945932-63-grenadines-homes.png,others,6.4664025,3.6399293,"Cardinal Anthony Olubunmi Okogie Road, Novare Lekki Mall, Sangotedo, Eti Osa, Lagos, 101245, Nigeria"
Harkman Building Product Nigeria Limited,"19/35, Badagry Expressway, Apapa, Lagos, Nigeria",8035689970,,others,6.479018,3.3560143,"Lagos-Badagry Expressway, Aqani, Surulere, Lagos, 102215, Nigeria"
Institute Of Chartered Accountants Of Nig. (ican),"Plot 16, Idowu Taylor Street, Victoria Island, Lagos, Nigeria",01-7642294-5,,others,6.4333053,3.426536,"Idowu Taylor Street, Victoria Island, Itirin, Eti Osa, Lagos, 500001, Nigeria"
Jeetar,"233 Adeola Odeku St, Victoria Island 101223, Lagos, Nigeria",0916 206 7316,https://www.businesslist.com.ng/img/ng/h/_1695940692-47-jeetar.jpg,others,6.4305912,3.4164825,"Adeola Odeku Street, Victoria Island, Itirin, Eti Osa, Lagos, 101241, Nigeria"
Joedi Moore Events Nigeria Limited,"15, Idimu Road, Alimosho, Lagos, Nigeria",8091519438,,others,6.563185321,3.274572259,"Idimu - Ikotun Road, Idimu, Alimosho, Lagos, 100263, Nigeria"
Kaybyno Creative Designs And Event Management,"16, Catholic Mission Street, Lagos Island, Nigeria",8023041268,,others,6.4501737,3.3968824,"Catholic Mission Street, Lagos, Lagos Island, Lagos, 100242, Nigeria"
Kuyus Suspended Ceilling,"1, Palm Avenue, Mushin, Lagos, Nigeria",8075419557,,others,6.5364409,3.3534217,"Palm Avenue, Mushin, Lagos, 100231, Nigeria"
LightStyles  Limited,"1 Ajose Adeogun Street, Victoria Island, Lagos, Nigeria",(+234-1)  2701306,,others,6.4310574,3.4311508,"Ajose Adeogun Street, Victoria Island, Itirin, Eti Osa, Lagos, 500001, Nigeria"
Madingwa Africa,"Lagos, Nigeria",+234 811 950 5537,,others,6.4550575,3.3941795,"Lagos, Lagos Island, Lagos, 100242, Nigeria"
Matken Global Ventures,"35, Obafemi Awolowo Way, Ikeja, Lagos, Nigeria",8035291043,,others,6.6076149,3.3499671,"Obafemi Awolowo Way, Alausa, Ikeja, Lagos, 100282, Nigeria"
Merit Nominees Limited,"144 Ojuelegba Road, Surulere, Lagos, Nigeria",(+234-1) 7742371,,others,6.5093497,3.3665733,"Ojuelegba Road, Surulere, Lagos, 102215, Nigeria"
Mizala,"Lagos, Nigeria",+234 705 536 2778,,others,6.4550575,3.3941795,"Lagos, Lagos Island, Lagos, 100242, Nigeria"
Mom-stop.com,"Lagos, Nigeria",+234 803 895 9527,,others,6.4550575,3.3941795,"Lagos, Lagos Island, Lagos, 100242, Nigeria"
Netrizen Services,"123, Isolo Road, Mushin, Lagos, Nigeria",8034277277,,others,6.528659579,3.347240227,"Isolo Road, Tinubu, Mushin, Lagos, 102215, Nigeria"
Ola communications,"60A, Campbell Street, Lagos, Nigeria",-7210798,,others,6.446403627,3.397993116,"Campbell Street, Lagos, Lagos Island, Lagos, 100242, Nigeria"
Omega Rental Service,"6, Ogunbekun Street, Bariga, Shomolu, Lagos, Nigeria",8033468266,,others,6.5418465,3.3829363,"Ogunbekun Street, Somolu, Shomolu, Lagos, 100231, Nigeria"
Panateq Centre Nig. Ltd,"83, Allen Avenue, Ikeja, Lagos, Nigeria",8028071980,,others,6.6017618,3.3519975,"Allen Avenue, Oregun, Alausa, Ikeja, Lagos, 100282, Nigeria"
Pixiebulksms,"Idimu, Lagos, Idimu, Alimosho, Nigeria",8023136034,,others,6.563185321,3.274572259,"Idimu - Ikotun Road, Idimu, Alimosho, Lagos, 100263, Nigeria"
Portals Communication Limited,"2, Ogun Street, Ikeja, Lagos, Nigeria",8139533800,,others,6.576998659,3.351769884,"Micheal Ogun Street, Onigbongbo, Ikeja, Lagos, 100271, Nigeria"
Power Circles Ltd,"39, Bode Thomas Street, Surulere, Lagos, Nigeria",7085590239,,others,6.4901019,3.3548829,"Bode Thomas Street, Surulere, Animashawun, Surulere, Lagos, 102215, Nigeria"
Richdot Manager Resources,"38, Raji Abayomi Street, Oshodi Isolo, Lagos, Nigeria",8053344613,,others,6.5626396,3.3388863,"Raji Abayomi Street, Oshodi/Isolo, Lagos, 100271, Nigeria"
Rika Global Technologies Limited,"50, Ojekunle Street, Mushin, Lagos, Nigeria",8143761016,,others,6.536487088,3.34051497,"Ojekunle Street, Mushin, Lagos, 100263, Nigeria"
Sidebrief,"Yaba, Lagos, Nigeria",0901 808 1296,https://www.businesslist.com.ng/img/ng/j/_1695940797-62-sidebrief.png,others,6.5114693,3.3699982,"Yaba, Olajuwon Street, Tinubu, Mushin, Lagos, 102215, Nigeria"
Spectrum Communications Services Limited,"9 Bombay Crescent, Apapa, Lagos, Nigeria",(+234-1) 5453275,,others,6.4416889,3.3660844,"Bombay Crescent, Ilado, Apapa, Lagos, 101001, Nigeria"
SpeedPay Finance Nigeria Limited,"Lagos, Nigeria",+234 9099999629,,others,6.4550575,3.3941795,"Lagos, Lagos Island, Lagos, 100242, Nigeria"
Stephen Oluwole Awokoya Foundation For Science Edu.,"101A Adeniyi Jones Ave. Ikeja, Lagos, Nigeria",01-2637809,,others,6.611372248,3.345193435,"Adeniyi Jones Avenue, Alausa, Ikeja, Lagos, 100282, Nigeria"
Suzania Rentals And Catering Services,"73, Adebola Street, Surulere, Lagos, Nigeria",8055424087,,others,6.495776676,3.360090423,"Adebola Street, Surulere, Iganmu, Surulere, Lagos, 102215, Nigeria"
T3 Communications Ltd,"Lagos , Nigeria",+234 18117716,,others,6.4550575,3.3941795,"Lagos, Lagos Island, Lagos, 100242, Nigeria"
Techizzy,"Lagos, Nigeria",2.34808E+12,,others,6.4550575,3.3941795,"Lagos, Lagos Island, Lagos, 100242, Nigeria"
Technicollit,"Lagos, Nigeria",2.34803E+12,,others,6.4550575,3.3941795,"Lagos, Lagos Island, Lagos, 100242, Nigeria"
4 Tees Rentals And Balloons Nigeria Limited,"23, Glover Road, Ikoyi, Eti Osa, Lagos, Nigeria",8023061488,,others,6.45501495,3.429305578,"Stamart, 23A, Glover Road, Ikoyi, Falomo, Eti Osa, Lagos, 101222, Nigeria"
Toddex Catering And Rentals,"67, College Road, Ifako, Ifako Ijaiye, Lagos, Nigeria",8038192904,,others,6.642727727,3.3288067,"College Road, Ijaiye, Ifako/Ijaye, Lagos, 100276, Nigeria"
Transcorp Group,"Lagos, Nigeria",+234 814 565 2652,,others,6.4550575,3.3941795,"Lagos, Lagos Island, Lagos, 100242, Nigeria"
Tringoo,"Lagos, Nigeria",2.34707E+12,,others,6.4550575,3.3941795,"Lagos, Lagos Island, Lagos, 100242, Nigeria"
Triangle Africa,"Lagos, Nigeria",2.34703E+13,,others,6.4550575,3.3941795,"Lagos, Lagos Island, Lagos, 100242, Nigeria"
Truce Market,"Lagos, Nigeria",2.3481E+12,,others,6.4550575,3.3941795,"Lagos, Lagos Island, Lagos, 100242, Nigeria"
Xtra-Cool International Limited,"33 Bornu Crescent, Apapa, Lagos, Nigeria",(+234) 1-8763908,,others,6.4392912,3.366007,"Bornu Crescent, Ilado, Apapa, Lagos, 101001, Nigeria"
Zevis Group Limited,"79 Adeniran Ogunsanya Street, Surulere, Lagos, Nigeria",(+234-1) 5851363,,others,6.494317491,3.357352432,"Adeniran Ogunsanya Street, Surulere, Animashawun, Surulere, Lagos, 102215, Nigeria"
AcneHOST,"Lagos, Nigeria",,,others,6.4550575,3.3941795,"Lagos, Lagos Island, Lagos, 100242, Nigeria"
Adugbo,"Lagos, Nigeria",,,others,6.4550575,3.3941795,"Lagos, Lagos Island, Lagos, 100242, Nigeria"
Big Cabal Media,"Lagos, Nigeria",,,others,6.4550575,3.3941795,"Lagos, Lagos Island, Lagos, 100242, Nigeria"
BluDoors,"Lagos, Nigeria",,,others,6.4550575,3.3941795,"Lagos, Lagos Island, Lagos, 100242, Nigeria"
Bundle Africa,"Lagos, Nigeria",,,others,6.4550575,3.3941795,"Lagos, Lagos Island, Lagos, 100242, Nigeria"
Clavis Express,"Ikoyi, Lagos, Nigeria",,,others,6.456061,3.442218,"Ikoyi, Falomo, Eti Osa, Lagos, 106104, Nigeria"
Cliptext,"Lagos, Nigeria",,,others,6.4550575,3.3941795,"Lagos, Lagos Island, Lagos, 100242, Nigeria"
Collect Africa,"Maryland, Lagos, Nigeria",,,others,6.5731894,3.3699482,"Maryland, Kosofe, Lagos, 100212, Nigeria"
Commissions.ng,"Lagos, Nigeria",+234 813-365-8674,https://www.businesslist.com.ng/img/ng/b/_1695941037-38-commissions-ng.jpg,others,6.4550575,3.3941795,"Lagos, Lagos Island, Lagos, 100242, Nigeria"
Crovation Limited,"Yaba, Lagos, Nigeria",+234 814 137 0923,https://www.businesslist.com.ng/img/ng/a/_1695941729-97-crovation-limited.jpg,others,6.5114693,3.3699982,"Yaba, Olajuwon Street, Tinubu, Mushin, Lagos, 102215, Nigeria"
Davisther Brokers,"Ebute-metta, Lagos, Nigeria",+234 808 908 6658,https://www.businesslist.com.ng/img/ng/x/_1695946025-57-davisther-brokers.jpg,others,6.4862553,3.3856122,"Ebute-Metta, Lagos Mainland, Lagos, 104233, Nigeria"
DocCheap,"Lagos, Nigeria",,,others,6.4550575,3.3941795,"Lagos, Lagos Island, Lagos, 100242, Nigeria"
Dojah,"Lagos, Nigeria",,,others,6.4550575,3.3941795,"Lagos, Lagos Island, Lagos, 100242, Nigeria"
Donate-ng,"Lagos, Nigeria",2.34906E+12,https://www.businesslist.com.ng/img/ng/e/_1695941748-24-donate-ng.png,others,6.4550575,3.3941795,"Lagos, Lagos Island, Lagos, 100242, Nigeria"
Eko Atlantic,"Lagos, Nigeria",-5699,https://www.businesslist.com.ng/img/ng/s/_1695945940-62-eko-atlantic.jpg,others,6.4550575,3.3941795,"Lagos, Lagos Island, Lagos, 100242, Nigeria"
Ethnikcity,"Maryland, Lagos, Nigeria",+234 818 040 9664,https://www.businesslist.com.ng/img/ng/r/_1695941053-93-ethnikcity.jpg,others,6.5731894,3.3699482,"Maryland, Kosofe, Lagos, 100212, Nigeria"
FanBants,"Lagos, Nigeria",,,others,6.4550575,3.3941795,"Lagos, Lagos Island, Lagos, 100242, Nigeria"
First Check Africa,"Lagos, Nigeria",,,others,6.4550575,3.3941795,"Lagos, Lagos Island, Lagos, 100242, Nigeria"
Frain technologies,"Lagos, Nigeria",,,others,6.4550575,3.3941795,"Lagos, Lagos Island, Lagos, 100242, Nigeria"
Front Edge,"Lagos, Nigeria",,,others,6.4550575,3.3941795,"Lagos, Lagos Island, Lagos, 100242, Nigeria"
FutureView Financial Services Ltd,"Ikoyi , Lagos, Nigeria",01-2629856,,others,6.456061,3.442218,"Ikoyi, Falomo, Eti Osa, Lagos, 106104, Nigeria"
Jobbercrunch,"Lagos, Nigeria",,,others,6.4550575,3.3941795,"Lagos, Lagos Island, Lagos, 100242, Nigeria"
JobHunch,"Lagos, Nigeria",+234 706 800 3926,https://www.businesslist.com.ng/img/ng/h/_1695940608-24-jobhunch.jpg,others,6.4550575,3.3941795,"Lagos, Lagos Island, Lagos, 100242, Nigeria"
LANDAM NIGERIA LIMITED,"Western Avenue, Surulere, Lagos, Lagos, Nigeria",234-1-8191053,https://www.businesslist.com.ng/img/ng/f/_1695940396-53-landam-nigeria-limited.jpg,others,6.4886162,3.3638884,"Western Avenue, Surulere, Iganmu, Surulere, Lagos, 102215, Nigeria"
Lawrence Price and Company,"Lagos, Nigeria",+234 906 254 6992,https://www.businesslist.com.ng/img/ng/z/_1695941083-90-lawrence-price-and-company.png,others,6.4550575,3.3941795,"Lagos, Lagos Island, Lagos, 100242, Nigeria"
MTN Nigeria Communications Limited,"Apapa , Lagos, Nigeria",+234 80310180,,others,6.445187,3.368373168,"Apapa, Lagos, Nigeria"
Naijium,"Lagos, Nigeria",,,others,6.4550575,3.3941795,"Lagos, Lagos Island, Lagos, 100242, Nigeria"
NaijaJobs,"Lagos, Nigeria",,,others,6.4550575,3.3941795,"Lagos, Lagos Island, Lagos, 100242, Nigeria"
NGR Jobs,"Lagos, Nigeria",,,others,6.4550575,3.3941795,"Lagos, Lagos Island, Lagos, 100242, Nigeria"
Nomad Integrated,"Lagos, Nigeria",+234 912 297 4151,https://www.businesslist.com.ng/img/ng/a/_1695940602-63-nomad-integrated.jpg,others,6.4550575,3.3941795,"Lagos, Lagos Island, Lagos, 100242, Nigeria"
Olusola Lanre Coaching Academy,"Lagos, Nigeria",+234 807 707 7000,https://www.businesslist.com.ng/img/ng/k/_1695946017-54-olusola-lanre-coaching-academy.jpg,others,6.4550575,3.3941795,"Lagos, Lagos Island, Lagos, 100242, Nigeria"
Orange Insurance Brokers,"Lagos, Nigeria",+234 705 997 4522,https://www.businesslist.com.ng/img/ng/l/_1695941856-16-orange-insurance-brokers.jpg,others,6.4550575,3.3941795,"Lagos, Lagos Island, Lagos, 100242, Nigeria"
Reachabl,"Lagos, Nigeria",,,others,6.4550575,3.3941795,"Lagos, Lagos Island, Lagos, 100242, Nigeria"
"The Design Institute, Lagos","Lagos, Nigeria",+234 8177210828,https://www.businesslist.com.ng/img/ng/b/_1695941660-15-the-design-institute-lagos.png,others,6.4550575,3.3941795,"Lagos, Lagos Island, Lagos, 100242, Nigeria"
Virtually Managed,"Ikoyi, Lagos, Nigeria",+234 806-272-5031,https://www.businesslist.com.ng/img/ng/x/_1695941099-45-virtually-managed.png,others,6.456061,3.442218,"Ikoyi, Falomo, Eti Osa, Lagos, 106104, Nigeria"
Wecover,"Lagos, Nigeria",,,others,6.4550575,3.3941795,"Lagos, Lagos Island, Lagos, 100242, Nigeria"
kitulu,"Lagos, Nigeria",,https://www.businesslist.com.ng/img/ng/j/_1695941106-97-kitulu.jpg,others,6.4550575,3.3941795,"Lagos, Lagos Island, Lagos, 100242, Nigeria"
McGee Global Ltd.,"45 Allen Ave. Ikeja Lagos , Nigeria",01-7918988,,others,6.6017618,3.3519975,"Allen Avenue, Oregun, Alausa, Ikeja, Lagos, 100282, Nigeria"
NextDaySite,"Dolphin Estate , Lagos, Nigeria",234 1 4613348,,others,6.45864555,3.416095854,"Dolphin Estate, Ikoyi, Eti Osa, Lagos, 101222, Nigeria"
Nigeria Jobs Online,"Lagos , Nigeria",01470 8324,,others,6.4550575,3.3941795,"Lagos, Lagos Island, Lagos, 100242, Nigeria"
Plainsail Solutions Limited,"Lagos , Nigeria",0803 535 1408,,others,6.4550575,3.3941795,"Lagos, Lagos Island, Lagos, 100242, Nigeria"
Topsite Infotech,"19, Odunlami Street, Shomolu, Lagos, Lagos, Nigeria",7038383998,,others,6.5321276,3.3805717,"Odunlami Street, Somolu, Shomolu, Lagos, 100231, Nigeria"
Traction Apps,"134b Association Rd, Dolphin Estate 106104, Lagos, Nigeria",0913 102 6154,,others,6.4592113,3.4199805,"Association Road, Dolphin Estate, Ikoyi, Eti Osa, Lagos, 101222, Nigeria"
YellowDot,"Lagos, Nigeria",,https://www.businesslist.com.ng/img/ng/g/_1695945973-89-yellowdot.png,others,6.4550575,3.3941795,"Lagos, Lagos Island, Lagos, 100242, Nigeria"
Anglodomain,"Lagos, Nigeria",2.34902E+12,,others,6.4550575,3.3941795,"Lagos, Lagos Island, Lagos, 100242, Nigeria"
Casafina Group,"Lagos, Nigeria",+234 908 070 2006,,others,6.4550575,3.3941795,"Lagos, Lagos Island, Lagos, 100242, Nigeria"
Cedar Advisory Partners,"Lagos, Nigeria",+234 80 602 81 339,,others,6.4550575,3.3941795,"Lagos, Lagos Island, Lagos, 100242, Nigeria"
Centre Support Professionals Ltd,"7, Ikorodu Road, Maryland, Lagos, Nigeria",8064836222,,others,6.5738225,3.368311302,"The GoldLink Group, 7, Ikorodu Road, Onigbongbo, Ikeja, Lagos, 101233, Nigeria"
Desire Dating Agency,"106, Isaac John Street Ikeja , Lagos, Lagos, Nigeria",2.34811E+12,https://www.businesslist.com.ng/img/ng/z/_1578894704-16-desire-dating-agency.jpg,others,6.580297167,3.358827056,"Isaac John Street, Onigbongbo, Ikeja, Lagos, 100271, Nigeria"
Fotospeed Laser Color Lab,"17, WAZIRI IBRAHIM CRESCENT, Victoria Island, Lagos, Nigeria",23417755000,,others,6.4339187,3.413317121,"Waziri Ibrahim Crescent, Victoria Island, Eti Osa, Lagos, 101241, Nigeria"
Fountain of Praise Music,"Lagos , Nigeria",7941569,,others,6.4550575,3.3941795,"Lagos, Lagos Island, Lagos, 100242, Nigeria"
Heirs Holdings,"1, MacGregor Road, Ikoyi, Lagos, Lagos, Nigeria",-4685,,others,6.4519473,3.4228569,"Macgregor Road, Ikoyi, Falomo, Eti Osa, Lagos, 101222, Nigeria"
Krestal Laurel Ltd,"376, Road, Maryland, Ikeja, Ikorodu, Lagos, Nigeria",01-2710345-6,,others,6.5742387,3.370202551,"Kantar Nigeria, 376B, Ikorodu Road, Onigbongbo, Ikeja, Lagos, 100212, Nigeria"
lnternational Labour Organisation (ILO),"188, Awolowo Rd., Ikoyi, Lagos, Nigeria",01-2618944,,others,6.442498899,3.420563038,"Awolowo Road, Ikoyi, Falomo, Eti Osa, Lagos, 101241, Nigeria"
Noccoin,"Lagos, Nigeria",+234 902 317 6178,,others,6.4550575,3.3941795,"Lagos, Lagos Island, Lagos, 100242, Nigeria"
Oladun Technical Services,"Lagos, Nigeria",8037270766,,others,6.4550575,3.3941795,"Lagos, Lagos Island, Lagos, 100242, Nigeria"
Parkwell Africa,"Ikoyi, Lagos, Nigeria",+234 02-2919400,,others,6.456061,3.442218,"Ikoyi, Falomo, Eti Osa, Lagos, 106104, Nigeria"
Periwinkle,"Lagos, Nigeria",+234 (810) 570-9922,,others,6.4550575,3.3941795,"Lagos, Lagos Island, Lagos, 100242, Nigeria"
Pixie Technologies,"Idimu, Lagos, Idimu, Alimosho, Nigeria",8023136034,,others,6.563185321,3.274572259,"Idimu - Ikotun Road, Idimu, Alimosho, Lagos, 100263, Nigeria"
Prisa Technology Ltd,"19, Unity Road, Ikeja, Lagos, Nigeria",7062996262,,others,6.5949208,3.3459912,"Unity Road, Ikeja, Lagos, 100281, Nigeria"
Primewaterview,"Lagos, Nigeria",+234 1-2799486-87,,others,6.4550575,3.3941795,"Lagos, Lagos Island, Lagos, 100242, Nigeria"
Royal United Nig. Ltd,"88, Ajose Adeogun Street, Victoria Island, Lagos, Lagos, Nigeria",+234 1 7753450,,others,6.4310574,3.4311508,"Ajose Adeogun Street, Victoria Island, Itirin, Eti Osa, Lagos, 500001, Nigeria"
Signo Africa Comm. Ltd,"156, Obafemi Awolowo Way, Ikeja, Lagos, Nigeria",01-8707778,,others,6.6076149,3.3499671,"Obafemi Awolowo Way, Alausa, Ikeja, Lagos, 100282, Nigeria"
Signcom Nig. Ltd,"294, Road, Ikorodu, Lagos, Nigeria",01-8164879,,others,6.6432916,3.616781,"Road, Ìkòròdú, Lagos, Nigeria"
Silicon Streets,"Lagos, Nigeria",+234 8067294580,,others,6.4550575,3.3941795,"Lagos, Lagos Island, Lagos, 100242, Nigeria"
Spatial Technologies Ltd,"Surulere , Lagos, Nigeria",0172 506 68,,others,6.4855737,3.353990695,"Surulere, Lagos, Nigeria"
Transcorp,"11, Alfred Rewane Road, Ikoyi, Lagos, Nigeria",01-4630476,,others,6.4488357,3.4288575,"Alfred Rewane Road, Ikoyi, Falomo, Eti Osa, Lagos, 101222, Nigeria"
Trendtv,"Ikeja , Lagos, Nigeria",234-1-4976492-9,,others,6.5960605,3.340787,"Ikeja, Lagos, Nigeria"
BlueMize,"Amuwo, Lagos, Nigeria",,,others,6.4470565,3.266315498,"Amuwo Odofin, Lagos, 102102, Nigeria"
cofoundHER,"Lagos, Nigeria",,,others,6.4550575,3.3941795,"Lagos, Lagos Island, Lagos, 100242, Nigeria"
Kan-Garoo,"Lagos, Nigeria",,,others,6.4550575,3.3941795,"Lagos, Lagos Island, Lagos, 100242, Nigeria"
Udolu,"Lagos, Nigeria",,,others,6.4550575,3.3941795,"Lagos, Lagos Island, Lagos, 100242, Nigeria"
Wetech,"Lagos, Nigeria",,,others,6.4550575,3.3941795,"Lagos, Lagos Island, Lagos, 100242, Nigeria"
Aratext,"16, Ogunlana Drive, Surulere, Lagos, Nigeria",7055360218,,others,6.5073961,3.352604797,"Ogunlana Drive, Surulere, Lagos, 102215, Nigeria"
Cheddar,"Lagos, Nigeria",+234 7063823858,,others,6.4550575,3.3941795,"Lagos, Lagos Island, Lagos, 100242, Nigeria"
Geo-fluids Ltd,"26, Idowu Taylor Street, Victoria Island, Lagos, Nigeria",8023869290,,others,6.4333053,3.426536,"Idowu Taylor Street, Victoria Island, Itirin, Eti Osa, Lagos, 500001, Nigeria"
Global Solutions,"1, Jide Street, Bariga, Shomolu, Lagos, Nigeria",8029188106,,others,6.5402087,3.398846,"Jide Street, Bariga, Shomolu, Lagos, 100234, Nigeria"
Icon Continental Global System Limited,"52, Ayilara Street, Surulere, Lagos, Lagos, Nigeria",-3295734367,,others,6.508833935,3.360852319,"Ayilara Street, Surulere, Lagos, 102215, Nigeria"
IDLAK Nigeria Limited,"Lagos, Nigeria",2.34819E+12,,others,6.4550575,3.3941795,"Lagos, Lagos Island, Lagos, 100242, Nigeria"
Jide Chord,"6, Mobolaji Bank Anthony Way, Ikeja, Lagos, Nigeria",01-4189922,,others,6.589729119,3.355109507,"Mobolaji Bank-Anthony Way, Oregun, Onigbongbo, Ikeja, Lagos, 100281, Nigeria"
Potech Intergrated Service Limited,"20, Adeniran Ogunsanya, Surulere, Lagos, Nigeria",8062623609,,others,6.494317491,3.357352432,"Adeniran Ogunsanya Street, Surulere, Animashawun, Surulere, Lagos, 102215, Nigeria"
4Tees Rentals And Baloons,"23a, Glover Road, Ikoyi, Eti Osa, Lagos, Nigeria",8067031970,,others,6.45501495,3.429305578,"Stamart, 23A, Glover Road, Ikoyi, Falomo, Eti Osa, Lagos, 101222, Nigeria"
The Wheatbaker,"4 Lawrence Rd, Ikoyi 101233, Lagos, Nigeria",01 277 3560,,others,6.4536363,3.445671592,"The Wheatbaker Hotel, 4, Lawrence Road, Ikoyi, Falomo, Eti Osa, Lagos, 106104, Nigeria"
GLENDALE INVESTMENT LTD,"Lagos, Nigeria",8033130767,,others,6.4550575,3.3941795,"Lagos, Lagos Island, Lagos, 100242, Nigeria"
Scib Nigeria & Company Limited,"66 Adeniran Ogunsanya Street, Surulere, Lagos, Nigeria",,,others,6.494317491,3.357352432,"Adeniran Ogunsanya Street, Surulere, Animashawun, Surulere, Lagos, 102215, Nigeria"
Afro Global Alliance,"Lagos, Nigeria",23413208574,,others,6.4550575,3.3941795,"Lagos, Lagos Island, Lagos, 100242, Nigeria"
Agric Services Nig. Ltd,"1, Ashanti Road, Apapa, Lagos, Nigeria",01-4600322,,others,6.4416949,3.3686305,"Ashanti Road, Ilado, Apapa, Lagos, 101001, Nigeria"
Best Roofers,"Oba Akran Avenue, Oba Akran, Ikeja, Lagos, Nigeria",8069726120,,others,6.5977286,3.340209127,"New Horizons Nigeria Ikeja Campus, Oba Akran Avenue, Ikeja, Lagos, 100282, Nigeria"
Bqc Consultants Ltd,"166, Awolowo Way, Ikeja, Lagos, Nigeria",01-3451285,,others,6.602383275,3.344455913,"Obafemi Awolowo Way, Alausa, Ikeja, Lagos, 100282, Nigeria"
Convenant Monogram And Prints,"103, Bode Thomas Street, Surulere, Lagos, Nigeria",8033112107,,others,6.490106136,3.354819699,"Bode Thomas Street, Surulere, Animashawun, Surulere, Lagos, 102215, Nigeria"
Coppers Lodge Broadcast Ltd,"138, Bode Thomas Street, Surulere, Lagos, Nigeria",8033037643,,others,6.490106136,3.354819699,"Bode Thomas Street, Surulere, Animashawun, Surulere, Lagos, 102215, Nigeria"
De-Meche Trust Link Agencies Ltd.,"18 Warehouse Rd., Lagos , Nigeria",01-5453843,,others,6.437761869,3.36397126,"Warehouse Road, Apapa, Lagos, 101001, Nigeria"
Dulan Media,"112A, Association Road, Dolphin Estate, Ikoyi, Lagos, Nigeria",-23064617,,others,6.459126579,3.419791365,"Association Road, Dolphin Estate, Ikoyi, Eti Osa, Lagos, 101222, Nigeria"
First Cardiology Consultants,"20A, Thompson Avenue, Ikoyi, Lagos, Nigeria",8035250205,,others,6.453070427,3.434132118,"Thompson Avenue, Ikoyi, Falomo, Eti Osa, Lagos, 101222, Nigeria"
Gocthech Nig. Ltd,"171, Borno Way, Ebute-Metta, Lagos, Nigeria",8037180691,,others,6.495337145,3.378496622,"Borno Way, Ebute-Metta, Lagos Mainland, Lagos, 104233, Nigeria"
Meatworld Foods Ltd,"43, Ire-Akari Estate Road, Isolo, Lagos, Nigeria",01-8970331,,others,6.524617423,3.322150192,"Ire-Akari Estate Road, Oshodi/Isolo, Lagos, 100263, Nigeria"
NEW DAWN AFRICA,"14 Adeniyi Jones, Ikeja, Lagos, Lagos, Nigeria",8163157226,,others,6.611372248,3.345193435,"Adeniyi Jones Avenue, Alausa, Ikeja, Lagos, 100282, Nigeria"
Public Informatics Limited,"Lagos, Nigeria",234-01-2644306,,others,6.4550575,3.3941795,"Lagos, Lagos Island, Lagos, 100242, Nigeria"
Serop Engineering Ltd,"20 Fola Agoro Street, Shomolu, Lagos, Nigeria",8023133386,,others,6.527217134,3.380800458,"Fola Agoro Street, Somolu, Shomolu, Lagos, 100231, Nigeria"
Sharon,"Lagos, Nigeria",01-7414938,,others,6.4550575,3.3941795,"Lagos, Lagos Island, Lagos, 100242, Nigeria"
True Power Inverters,"Lagos, Nigeria",8080293624,,others,6.4550575,3.3941795,"Lagos, Lagos Island, Lagos, 100242, Nigeria"
Webxponent - SEO Company,"Ikoyi, Lagos, Nigeria",2.34902E+12,https://www.businesslist.com.ng/img/ng/b/_1695940843-29-webxponent-seo-company.jpg,others,6.456061,3.442218,"Ikoyi, Falomo, Eti Osa, Lagos, 106104, Nigeria"
Xgate Technologies,"Lagos, Nigeria",8052328592,,others,6.4550575,3.3941795,"Lagos, Lagos Island, Lagos, 100242, Nigeria"
Yukims Nigeria Limited,"Plot 43, Kudirat Abiola Way, Alausa Ikeja, Lagos, Nigeria",(+234-1) 7758801,,others,6.599247347,3.366008727,"Kudirat Abiola Way, res1, Oregun, Alausa, Ikeja, Lagos, 100281, Nigeria"
Bible Society Of Nig.,"18, Wharf Road, Apapa, Lagos, Nigeria",,,others,6.446245969,3.372301524,"Wharf Road, Ilado, Apapa, Lagos, 101001, Nigeria"
Chocolate City Group,"Lagos, Nigeria",,https://www.businesslist.com.ng/img/ng/j/_1695946056-88-chocolate-city-group.jpg,others,6.4550575,3.3941795,"Lagos, Lagos Island, Lagos, 100242, Nigeria"
Kenting Africa Resource Sers. Ltd.,"53, Lawson St., Box 1658, Lagos, Nigeria",01-2636555,,others,6.443335272,3.446315709,"Adeyemi Lawson Street, Maroko, Falomo, Eti Osa, Lagos, 106104, Nigeria"
wealth house,"ilupeju , Lagos, Nigeria",01 8156913,,others,6.545464801,3.359461626,"Ilupeju Bye Pass, Mushin, Lagos, 100231, Nigeria"
Access to Justice,"Apapa , Lagos, Nigeria",234-1-5871279,,others,6.445187,3.368373168,"Apapa, Lagos, Nigeria"
Akorede Trading Store,"68 Lewis Street, Lagos Island, Nigeria",-2663809,,others,6.449285409,3.406028642,"Lewis Street, Lagos, Lagos Island, Lagos, 101222, Nigeria"
Aninet Internatinal Services Limited,"17 Toyin Street, Ikeja, Lagos, Nigeria",(+234) 8027856964,,others,6.596005518,3.351082574,"Toyin Street, Oregun, Ikeja, Lagos, 100281, Nigeria"
Babajide  Ventures,"20 Broad street, Lagos Island, Nigeria",-33140301,,others,6.455583255,3.384115846,"Broad Street, Lagos, Lagos Island, Lagos, 101001, Nigeria"
Computronics Distribution (Nig.) Ltd,"Ikeja , Lagos, Nigeria",234-1-3453567-8,,others,6.5960605,3.340787,"Ikeja, Lagos, Nigeria"
Combined Ind. - Agro Consults. Ltd. (CIACO),"1035B, Akin Adesola Street, Victoria Island, Lagos, Nigeria",01-2610229,,others,6.430785273,3.423977814,"Akin Adesola Street, Victoria Island, Itirin, Eti Osa, Lagos, 500001, Nigeria"
Curricula,"Lagos, Nigeria",2.34811E+12,,others,6.4550575,3.3941795,"Lagos, Lagos Island, Lagos, 100242, Nigeria"
Derihunter Aquatransport,"Lagos, Nigeria",+234 (0) 818 195 0695,,others,6.4550575,3.3941795,"Lagos, Lagos Island, Lagos, 100242, Nigeria"
Electric Shack Limited,"3 Allen Avenue, Ikeja, Lagos, Nigeria",01-4961454 01-5821179,,others,6.5962647,3.3545785,"Tecno Mobile, 3, Allen Avenue, Oregun, Alausa, Ikeja, Lagos, 100281, Nigeria"
Engineer Muroh-Bami Ventures Limited,"44 Idumagbo Avenue, Lagos Island, Nigeria",-33009640,,others,6.460124375,3.395249814,"Idumagbo Avenue, Lagos, Lagos Island, Lagos, 100242, Nigeria"
Eno Udofia & Co,"11 Raymond Street, Lagos, Nigeria",-7203702,,others,6.4425682,3.424844821,"Matrixvtrack, 11, Raymond Njoku Street, Ikoyi, Falomo, Eti Osa, Lagos, 101241, Nigeria"
Farm Depot,"28 Bode Thomas Street, Surulere, Lagos, Nigeria",-23066105,,others,6.490106136,3.354819699,"Bode Thomas Street, Surulere, Animashawun, Surulere, Lagos, 102215, Nigeria"
Frank Nigeria International,"25 Idumagbo Avenue, Lagos Island, Nigeria",(+234-80) 35694837,,others,6.460124375,3.395249814,"Idumagbo Avenue, Lagos, Lagos Island, Lagos, 100242, Nigeria"
Freezeland Nigeria ltd,"Ilupeju , Lagos, Nigeria",01-7915614,,others,6.545464801,3.359461626,"Ilupeju Bye Pass, Mushin, Lagos, 100231, Nigeria"
Fryda Nigeria Ltd,"73 Ogunlana Drive, Surulere, Lagos, Nigeria",-8922738,,others,6.5073961,3.352604797,"Ogunlana Drive, Surulere, Lagos, 102215, Nigeria"
Furus Ethnik Citi,"34, Adeniran Ogunsanya Street, Surulere, Lagos, Nigeria",-4337298,,others,6.494317491,3.357352432,"Adeniran Ogunsanya Street, Surulere, Animashawun, Surulere, Lagos, 102215, Nigeria"
Garba Mohammed Danladi,"55 Martins Street, Lagos Island, Nigeria",-23187251,,others,6.432899708,3.420003218,"Idowu Martins Street, Victoria Island, Eti Osa, Lagos, 500001, Nigeria"
Gloryseed Nigeria Enterprises,"176 Broad Street, Lagos Island, Nigeria",-23687047,,others,6.455583255,3.384115846,"Broad Street, Lagos, Lagos Island, Lagos, 101001, Nigeria"
Global Bank Ltd. (Formerly Hillcrest Mercht. Bank),"2 Awolowo Rd, Ikoyi 106104, Lagos, Nigeria",01-2626001,,others,6.444461297,3.426890601,"Awolowo Road, Ikoyi, Falomo, Eti Osa, Lagos, 500001, Nigeria"
Hammer Smiths Nigerian Limited,"64 Nnamdi Azikiwe Street, Lagos Island, Nigeria",-54287167,,others,6.4620643,3.38694765,"Nnamdi Azikiwe Street, Lagos, Lagos Island, Lagos, 100242, Nigeria"
Hawksworth Advisors,"Lagos, Nigeria",2.34802E+12,,others,6.4550575,3.3941795,"Lagos, Lagos Island, Lagos, 100242, Nigeria"
Ibahin  Ventures,"25 Idumagbo Avenue, Lagos Island, Nigeria",-35297161,,others,6.460124375,3.395249814,"Idumagbo Avenue, Lagos, Lagos Island, Lagos, 100242, Nigeria"
Kablad  Enterprises,"39 Oko-Awo Street, Lagos Island, Nigeria",-34955132,,others,6.428614928,3.427683887,"Oko Awo Street, Victoria Island, Itirin, Eti Osa, Lagos, 500001, Nigeria"
Kamfat Nigeria Enterprises,"10 Idumagbo Avenue, Lagos Island, Nigeria",-34376244,,others,6.460124375,3.395249814,"Idumagbo Avenue, Lagos, Lagos Island, Lagos, 100242, Nigeria"
Kareem Balogun & Sons,"25 Idumagbo Avenue, Lagos Island, Nigeria",-32161824,,others,6.460124375,3.395249814,"Idumagbo Avenue, Lagos, Lagos Island, Lagos, 100242, Nigeria"
Kareem Afolabi & Sons,"74 Martins Street, Lagos Island, Nigeria",-56085137,,others,6.432899708,3.420003218,"Idowu Martins Street, Victoria Island, Eti Osa, Lagos, 500001, Nigeria"
K Omotosho Company,"72 Nnamdi Azikiwe Street, Lagos Island, Nigeria",-55294814,,others,6.4620643,3.38694765,"Nnamdi Azikiwe Street, Lagos, Lagos Island, Lagos, 100242, Nigeria"
KO Venture,"6 Idumagbo Avenue, Lagos Island, Nigeria",-33157956,,others,6.460124375,3.395249814,"Idumagbo Avenue, Lagos, Lagos Island, Lagos, 100242, Nigeria"
La Bash Global Nigeria Limited,"26B, Lewis Street, Lagos Island, Nigeria",-8185625,,others,6.449285409,3.406028642,"Lewis Street, Lagos, Lagos Island, Lagos, 101222, Nigeria"
Lady Smary Nigerian Limited,"26 Idumagbo Avenue, Lagos Island, Nigeria",(+234-80)  32290016,,others,6.460124375,3.395249814,"Idumagbo Avenue, Lagos, Lagos Island, Lagos, 100242, Nigeria"
Laolat Enterprises Nigeria,"54 Martins Street, Lagos Island, Nigeria",-25722370,,others,6.432899708,3.420003218,"Idowu Martins Street, Victoria Island, Eti Osa, Lagos, 500001, Nigeria"
Larry & Son,"12 Idumagbo Avenue, Lagos Island, Nigeria",-38316851,,others,6.460124375,3.395249814,"Idumagbo Avenue, Lagos, Lagos Island, Lagos, 100242, Nigeria"
Lawn Care,"28 Adelabu Street, Surulere, Lagos, Nigeria",-55872296,,others,6.501330941,3.350581492,"Adelabu Street, Surulere, Lagos, 102215, Nigeria"
Lenny Ventures,"23 Joseph Street, lagos Island, Nigeria",-23302576,,others,6.449811054,3.394637232,"Joseph Street, Lagos, Lagos Island, Lagos, 100242, Nigeria"
Lion Fat Trading Stores,"35 Idumagbo Avenue, Lagos Island, Nigeria",-66748861,,others,6.460124375,3.395249814,"Idumagbo Avenue, Lagos, Lagos Island, Lagos, 100242, Nigeria"
Lukmus Nigeria Limited,"37 Bankole Street, Lagos Island, Nigeria",-51724934,,others,6.457734586,3.382062681,"Bankole Street, Lagos, Lagos Island, Lagos, 101001, Nigeria"
Lukeson Corporate Co Limited,"25 Idumagbo Avenue, Lagos Island, Nigeria",-2634876,,others,6.460124375,3.395249814,"Idumagbo Avenue, Lagos, Lagos Island, Lagos, 100242, Nigeria"
Miyi Ventures,"10 Idumagbo Avenue, Lagos Island, Nigeria",-5324439,,others,6.460124375,3.395249814,"Idumagbo Avenue, Lagos, Lagos Island, Lagos, 100242, Nigeria"
M.K. Lawal & Sons Nigeria Limited,"14 Idumagbo Avenue, Lagos Island, Nigeria",-29047006,,others,6.460124375,3.395249814,"Idumagbo Avenue, Lagos, Lagos Island, Lagos, 100242, Nigeria"
Molac Sports Stores Nigeria Limited,"8 Nnamdi Azikiwe Street, Lagos Island, Nigeria",-7238142,,others,6.4620643,3.38694765,"Nnamdi Azikiwe Street, Lagos, Lagos Island, Lagos, 100242, Nigeria"
Moninuola Trading Store,"12 Idumagbo Avenue, Lagos Island, Nigeria",-56205748,,others,6.460124375,3.395249814,"Idumagbo Avenue, Lagos, Lagos Island, Lagos, 100242, Nigeria"
Myke Records,"ikeja , Lagos, Nigeria",01 4602041,,others,6.5960605,3.340787,"Ikeja, Lagos, Nigeria"
Nibson Internation Trading,"6 Idumagbo Avenue,Lagos Island, Nigeria",-34154348,,others,6.460124375,3.395249814,"Idumagbo Avenue, Lagos, Lagos Island, Lagos, 100242, Nigeria"
Nuramik Limited,"9 Oroyinyin Street, Lagos Island, Nigeria",-33101861,,others,6.461050909,3.390533766,"Oroyinyin Street, Lagos, Lagos Island, Lagos, 100242, Nigeria"
Ogo Oluwa Investments,"25 Idumagbo Avenue, Lagos Island, Nigeria",-66390849,,others,6.460124375,3.395249814,"Idumagbo Avenue, Lagos, Lagos Island, Lagos, 100242, Nigeria"
Okanlawon Ventures,"18 Idumagbo Avenue, Lagos Island, Nigeria",-34249993,,others,6.460124375,3.395249814,"Idumagbo Avenue, Lagos, Lagos Island, Lagos, 100242, Nigeria"
Olatayo Nigeria Enterprise,"37/38 Idumagbo Avenue, Lagos Island, Nigeria",-34295320,,others,6.460124375,3.395249814,"Idumagbo Avenue, Lagos, Lagos Island, Lagos, 100242, Nigeria"
Olarex International Ventures,"76 Martins Street, Lagos Island, Nigeria",-33528420,,others,6.432899708,3.420003218,"Idowu Martins Street, Victoria Island, Eti Osa, Lagos, 500001, Nigeria"
Olaoye Global Concept Limited,"135 Nnamdi Azikiwe Street, Lagos Island, Nigeria",-24615283,,others,6.4620643,3.38694765,"Nnamdi Azikiwe Street, Lagos, Lagos Island, Lagos, 100242, Nigeria"
Ola omo Ola Nigeria Limited,"54 Nnamdi Azikiwe Street, Lagos Island, Nigeria",-56728799,,others,6.4620643,3.38694765,"Nnamdi Azikiwe Street, Lagos, Lagos Island, Lagos, 100242, Nigeria"
Olowolayemo & Brothers,"9 Idumagbo Avenue, Lagos Island, Nigeria",(+234-80-23701644,,others,6.460124375,3.395249814,"Idumagbo Avenue, Lagos, Lagos Island, Lagos, 100242, Nigeria"
Olowo Venture,"35 Idumagbo Avenue, Lagos Island, Nigeria",-35831955,,others,6.460124375,3.395249814,"Idumagbo Avenue, Lagos, Lagos Island, Lagos, 100242, Nigeria"
Oluwasegun Oyeniyi Ventures,"25 Idumagbo Avenue, Lagos Island, Nigeria",-38032714,,others,6.460124375,3.395249814,"Idumagbo Avenue, Lagos, Lagos Island, Lagos, 100242, Nigeria"
Opeen Anyefact Enterprise,"13A, Odunlami Street, Lagos Island, Nigeria",-2629029,,others,6.452122111,3.391610614,"Odunlami Street, Lagos, Lagos Island, Lagos, 101001, Nigeria"
Oriyomi Dauda & Sons Nigeria Limited,"47 Oroyinyin Street, Lagos Island, Nigeria",-23652108,,others,6.461050909,3.390533766,"Oroyinyin Street, Lagos, Lagos Island, Lagos, 100242, Nigeria"
Oyeniyi Lawalxson,"72 Nnamdi Azikiwe Street, Lagos Island, Nigeria",-26310291,,others,6.4620643,3.38694765,"Nnamdi Azikiwe Street, Lagos, Lagos Island, Lagos, 100242, Nigeria"
Pa Oguntunde Nigeria Enterprises,"98 Nnamdi Azikiwe Street, Lagos Island, Nigeria",-37263625,,others,6.4620643,3.38694765,"Nnamdi Azikiwe Street, Lagos, Lagos Island, Lagos, 100242, Nigeria"
Peace Tidings Ventures,"8A, Nnamdi Azikiwe Street, Lagos Island, Nigeria",-7737579,,others,6.4620643,3.38694765,"Nnamdi Azikiwe Street, Lagos, Lagos Island, Lagos, 100242, Nigeria"
Popbaze,"Lagos, Nigeria",2.34811E+12,,others,6.4550575,3.3941795,"Lagos, Lagos Island, Lagos, 100242, Nigeria"
Portland Bathrooms,"15 Aromire Street, Ikeja, Lagos, Nigeria",-7739377,,others,6.609164053,3.346899195,"Aromire Street, Alausa, Ikeja, Lagos, 100282, Nigeria"
Provision On The Road,"162 Broad Street, Lagos Island, Nigeria",-53256437,,others,6.455583255,3.384115846,"Broad Street, Lagos, Lagos Island, Lagos, 101001, Nigeria"
Quietstorm Inv. Co. Ltd,"17, Commercial Road, Apapa, Lagos, Nigeria",01-5871596,,others,6.438408606,3.372812601,"Commercial Road, Ilado, Apapa, Lagos, 101001, Nigeria"
R.A. Adeniran & Sons,"9 Idumagbo Avenue, Lagos Island, Nigeria",-565411586,,others,6.460124375,3.395249814,"Idumagbo Avenue, Lagos, Lagos Island, Lagos, 100242, Nigeria"
Rightime Enterprises,"43 Agoro, Lagos Island, Nigeria",-28119131,,others,6.461845038,3.386363027,"Agoro Street, Lagos, Lagos Island, Lagos, 100242, Nigeria"
R  Oluwalosheyi  Nigeria  Company,"47 Oroyinyin Street, Lagos Island, Nigeria",-55418631,,others,6.4609753,3.3902913,"Oroyinyin Street, Lagos, Lagos Island, Lagos, 100242, Nigeria"
Saga VIII,"35A, Ademola Adetokunbo Street, Victoria Island, Lagos, Nigeria",-2702373,,others,6.4265564,3.4293497,"Adetokunbo Ademola Street, Victoria Island, Itirin, Eti Osa, Lagos, 500001, Nigeria"
Salau Gantiu & Sobs,"63 idumagbo Avenue, Lagos Island, Nigeria",-67997400,,others,6.4589123,3.3902907,"Idumagbo Avenue, Lagos, Lagos Island, Lagos, 100242, Nigeria"
Sarosam Investment Nigeria Limited,"43 Broad Street, Lagos Island, Nigeria",-88756870,,others,6.44982356,3.393738021,"Broad Street, Lagos, Lagos Island, Lagos, 100242, Nigeria"
Silky Touch Ltd,"14B, Karimu Kotun Street, Victoria Island, Lagos, Nigeria",01-4448391,,others,6.427412198,3.425622485,"Karimu Kotun Street, Victoria Island, Itirin, Eti Osa, Lagos, 500001, Nigeria"
Sir T Nigeria Enterprises,"9 Idumagbo Avenue, Lagos Island, Nigeria",-23267816,,others,6.4589123,3.3902907,"Idumagbo Avenue, Lagos, Lagos Island, Lagos, 100242, Nigeria"
S.I. Rafiu & Company Limited,"16 Idumagbo Avenue, Lagos Island, Nigeria",-36974557,,others,6.4589123,3.3902907,"Idumagbo Avenue, Lagos, Lagos Island, Lagos, 100242, Nigeria"
Smartswatch Nig. Ltd,"19, Saka Tinubu Street, Victoria Island, Lagos, Nigeria",01-7612006,,others,6.4270712,3.4199417,"Saka Tinubu Street, Victoria Island, Itirin, Eti Osa, Lagos, 500001, Nigeria"
Stimo Ventures,"23/25 Idumagbo Avenue, Lagos Island, Nigeria",-3328706,,others,6.4589123,3.3902907,"Idumagbo Avenue, Lagos, Lagos Island, Lagos, 100242, Nigeria"
Taolab Ventures,"71/72 Nnamdi Azikiwe, Lagos Island, Nigeria",-23821457,,others,6.4561191,3.3882241,"Nnamdi Azikiwe Street, Lagos, Lagos Island, Lagos, 101001, Nigeria"
T J Ventures,"26 Palm Avenue, Mushin, Lagos, Nigeria",-23599155,,others,6.5364409,3.3534217,"Palm Avenue, Mushin, Lagos, 100231, Nigeria"
Tlanredlawepo  Nigeria Enterprises,"75 Nnamdi Azikiwe Street, Lagos Island, Nigeria",-83735123,,others,6.4561191,3.3882241,"Nnamdi Azikiwe Street, Lagos, Lagos Island, Lagos, 101001, Nigeria"
Toki Mabogunje & Company (TMC),"Lagos , Nigeria",234-1-891-1534,,others,6.4550575,3.3941795,"Lagos, Lagos Island, Lagos, 100242, Nigeria"
Trade Union Congress Of Nigeria,"338, Road, Ikorodu, Lagos, Nigeria",01-4701699,,others,6.6432916,3.616781,"Road, Ìkòròdú, Lagos, Nigeria"
Track Masterz,"88 Obafemi Awolowo Way, Ikeja, Lagos, Nigeria",+234 1 4978528,,others,6.6076149,3.3499671,"Obafemi Awolowo Way, Alausa, Ikeja, Lagos, 100282, Nigeria"
Twins Str Venture,"35 Idumagbo Avenue, Lagos Island, Nigeria",-266543,,others,6.4589123,3.3902907,"Idumagbo Avenue, Lagos, Lagos Island, Lagos, 100242, Nigeria"
Usan Aremu World Wide,"31 Idumagbo Avenue, Lagos Island, Nigeria",-55784821,,others,6.4589123,3.3902907,"Idumagbo Avenue, Lagos, Lagos Island, Lagos, 100242, Nigeria"
uwalogbon Eda Enterprise,"72 Martins Street, Lagos Island, Nigeria",-60271347,,others,6.4327768,3.4199707,"Idowu Martins Street, Victoria Island, Eti Osa, Lagos, 500001, Nigeria"
Wise Choice Ventures,"32 Martins Street, Lagos Island, Nigeria",-38200335,,others,6.4313928,3.4383559,"Jubril Martins Street, Victoria Island, Itirin, Eti Osa, Lagos, 101243, Nigeria"
Ziklagsis Networks Limited,"70 Adeniran Ogunsanya Street, Surulere, Lagos, Nigeria",+234 1 8782700,,others,6.494317491,3.357352432,"Adeniran Ogunsanya Street, Surulere, Animashawun, Surulere, Lagos, 102215, Nigeria"
Africa Made Product Standards,"Lagos, Nigeria",,,others,6.4550575,3.3941795,"Lagos, Lagos Island, Lagos, 100242, Nigeria"
Aldiwan,"1303 Akin Adesola Street, Victoria Island, Lagos, Nigeria",,,others,6.430785273,3.423977814,"Akin Adesola Street, Victoria Island, Itirin, Eti Osa, Lagos, 500001, Nigeria"
BAR BEACH POLICE STATION,"Ahmadu Bello Way, Victoria Island, Lagos, Nigeria",,,others,6.422519788,3.418762764,"Ahmadu Bello Way, Victoria Island, Eko Atlantic, Eti Osa, Lagos, 500001, Nigeria"
Beavly,"Lagos, Nigeria",,,others,6.4550575,3.3941795,"Lagos, Lagos Island, Lagos, 100242, Nigeria"
Communications Trends Nigeria Limited,"Lagos, Nigeria",234-01-49764963-8 4976500,,others,6.4550575,3.3941795,"Lagos, Lagos Island, Lagos, 100242, Nigeria"
Council for Legal Education of Nigeria,"Lagos, Nigeria",,,others,6.4550575,3.3941795,"Lagos, Lagos Island, Lagos, 100242, Nigeria"
Cowrie Integrated Systems,"Lagos, Nigeria",,,others,6.4550575,3.3941795,"Lagos, Lagos Island, Lagos, 100242, Nigeria"
Dolce Vita,"184, Awolowo Road, Ikoyi, Lagos, Nigeria",,,others,6.442498899,3.420563038,"Awolowo Road, Ikoyi, Falomo, Eti Osa, Lagos, 101241, Nigeria"
Glad Company Limited,"8 Marine Road, Apapa, Lagos, Nigeria",,,others,6.4477809,3.3523581,"Marine Road, Apapa, Lagos, 101001, Nigeria"
Hamaba Nigeria Limited,"16 Idumagbo Avenue, Lagos Island, Nigeria",,,others,6.4589123,3.3902907,"Idumagbo Avenue, Lagos, Lagos Island, Lagos, 100242, Nigeria"
Intracom Internet Services,"Victoria Island , Lagos, Nigeria",01-2625316,,others,6.4300279,3.4259904,"Victoria Island, Itirin, Eti Osa, Lagos, 500001, Nigeria"
Kadiri Yusuf Trading Company,"36 Idumagbo Avenue, Lagos Island, Nigeria",,,others,6.4589123,3.3902907,"Idumagbo Avenue, Lagos, Lagos Island, Lagos, 100242, Nigeria"
Kem-willy Nigeria Limited,"40 Ojuelegba Road, Surulere, Lagos, Nigeria",,,others,6.5093497,3.3665733,"Ojuelegba Road, Surulere, Lagos, 102215, Nigeria"
Kosher Ladies Blog,"Lagos, Nigeria",,,others,6.4550575,3.3941795,"Lagos, Lagos Island, Lagos, 100242, Nigeria"
LeedPay,"Lagos, Nigeria",2.34813E+12,https://www.businesslist.com.ng/img/ng/x/_1695940636-41-leedpay.jpg,others,6.4550575,3.3941795,"Lagos, Lagos Island, Lagos, 100242, Nigeria"
Living Proof Limited,"4 Catholic Mission, Lagos Island, Nigeria",,,others,6.4501737,3.3968824,"Catholic Mission Street, Lagos, Lagos Island, Lagos, 100242, Nigeria"
MapIt Nigeria Limited,"Ogba , Lagos, Nigeria",-8501533,,others,6.621530266,3.328585139,"Ogba Road, Agege, Lagos, 100282, Nigeria"
Mr. Muzik,"32, Toyin Street, Ikeja, Lagos, Nigeria",,,others,6.595972,3.3512331,"Toyin Street, Oregun, Ikeja, Lagos, 100281, Nigeria"
NIGERIAN ENERGY SECTOR FUND PLC,"Lagos, Nigeria",01-266 420-9,,others,6.4550575,3.3941795,"Lagos, Lagos Island, Lagos, 100242, Nigeria"
Nigerian Institute of Medical Research,"Yaba , Lagos, Nigeria",2.34802E+12,,others,6.5114693,3.3699982,"Yaba, Olajuwon Street, Tinubu, Mushin, Lagos, 102215, Nigeria"
Nigerian Medical Association,"Ikeja , Lagos, Nigeria",234 1 4801569,,others,6.5960605,3.340787,"Ikeja, Lagos, Nigeria"
Pukena Concierge Services,"Yaba, Lagos, Nigeria",+234 816 841 1237,https://www.businesslist.com.ng/img/ng/r/_1695941085-72-pukena-concierge-services.jpg,others,6.5114693,3.3699982,"Yaba, Olajuwon Street, Tinubu, Mushin, Lagos, 102215, Nigeria"
Sankore Publishers Ltd,"Victoria Island , Lagos, Nigeria",234-1-2617797,,others,6.4300279,3.4259904,"Victoria Island, Itirin, Eti Osa, Lagos, 500001, Nigeria"
The Chagoury Group,"Lagos, Nigeria",,,others,6.4550575,3.3941795,"Lagos, Lagos Island, Lagos, 100242, Nigeria"
ValuCard Nigeria,"Victoria Island , Lagos, Nigeria",234 1 2703010-4,,others,6.4300279,3.4259904,"Victoria Island, Itirin, Eti Osa, Lagos, 500001, Nigeria"
Vendblue,"Yaba, Lagos, Nigeria",,,others,6.5114693,3.3699982,"Yaba, Olajuwon Street, Tinubu, Mushin, Lagos, 102215, Nigeria"
Viligant Insurance Co. Ltd,"Anthony , Lagos, Nigeria",01 4961771,,others,6.589729119,3.355109507,"Mobolaji Bank-Anthony Way, Oregun, Onigbongbo, Ikeja, Lagos, 100281, Nigeria"
A pictures studio and lab,"Ebute metta , Lagos, Nigeria",01 817 6342,,others,6.4862553,3.3856122,"Ebute-Metta, Lagos Mainland, Lagos, 104233, Nigeria"
DARE COMMUNICATIONS AND ELECTRONIC BUSINESS,"Lagos, Nigeria",14774004,,others,6.4550575,3.3941795,"Lagos, Lagos Island, Lagos, 100242, Nigeria"
DUVIK NIGERIA LTD,"LAGOS , Nigeria",234-8067311674,,others,6.4550575,3.3941795,"Lagos, Lagos Island, Lagos, 100242, Nigeria"
HONDA,"Victoria Island , Lagos, Nigeria",01 8525040,,others,6.4300279,3.4259904,"Victoria Island, Itirin, Eti Osa, Lagos, 500001, Nigeria"
JACENET INTERNATIONAL (NIG) LTD,"Lagos, Nigeria",01-720-7698,,others,6.4550575,3.3941795,"Lagos, Lagos Island, Lagos, 100242, Nigeria"
Jangilova,"Lagos, Nigeria",,https://www.businesslist.com.ng/img/ng/e/_1695941057-54-jangilova.jpg,others,6.4550575,3.3941795,"Lagos, Lagos Island, Lagos, 100242, Nigeria"
Jescoint Unique Enterprises,"Lagos, Nigeria",234-1-4735153,,others,6.4550575,3.3941795,"Lagos, Lagos Island, Lagos, 100242, Nigeria"
Jw events,"lagos , Nigeria",8540969,,others,6.4550575,3.3941795,"Lagos, Lagos Island, Lagos, 100242, Nigeria"
MaxSecure Link,"Lagos , Nigeria",+234 1 898 1568,,others,6.4550575,3.3941795,"Lagos, Lagos Island, Lagos, 100242, Nigeria"
Muhtar International shipping servives,"Lagos, Nigeria",234-01-8903114,,others,6.4550575,3.3941795,"Lagos, Lagos Island, Lagos, 100242, Nigeria"
Rarefy Consulting,"Lagos, Nigeria",,https://www.businesslist.com.ng/img/ng/n/_1695940926-72-rarefy-consulting.jpg,others,6.4550575,3.3941795,"Lagos, Lagos Island, Lagos, 100242, Nigeria"
Recon Technology,"Ikoyi , Lagos, Nigeria",14761212,,others,6.456061,3.442218,"Ikoyi, Falomo, Eti Osa, Lagos, 106104, Nigeria"
STJ International Equity & Assets LLC,"Marina , Lagos, Nigeria",01-720-7698,,others,6.4461596,3.3950293,"Marina, New Marina Road, Lagos, Lagos Island, Lagos, 101001, Nigeria"
ADMIRALTY RESOURCE SERVICES,"Surulere , Lagos, Nigeria",234-1-7905831,,others,6.4855737,3.353990695,"Surulere, Lagos, Nigeria"
AMBER RESOURCES NIGERIA LIMITED,"5A AERODROME ROAD APAPA LAGOS STATE , Nigeria",84237528,,others,6.4411366,3.3735215,"Aerodrome Road, Ilado, Apapa, Lagos, 101001, Nigeria"
Association of Pension Funds of Nigeria,"Lagos Island , Nigeria",2642661,,others,6.5148613,3.490866161,"Lagos Island, Lagos, Nigeria"
Bacom,"Lagos, Nigeria",234-1-2620185,,others,6.4550575,3.3941795,"Lagos, Lagos Island, Lagos, 100242, Nigeria"
Bureau Veritas Group.,"25 Glover Rd. Ikoyi, Lagos, Nigeria",01-2692614,,others,6.4570513,3.4245221,"Glover Road, Ikoyi, Falomo, Eti Osa, Lagos, 101222, Nigeria"
First Deep Waters,"20, Ogunlana Drive, Surulere, Lagos, Nigeria",01-2708827,,others,6.5073961,3.352604797,"Ogunlana Drive, Surulere, Lagos, 102215, Nigeria"
Globalecho Limited,"Lagos, Nigeria",7756506,,others,6.4550575,3.3941795,"Lagos, Lagos Island, Lagos, 100242, Nigeria"
Great Nigeria Insurance Company PLC,"Ikoyi , Lagos, Nigeria",2670430,,others,6.456061,3.442218,"Ikoyi, Falomo, Eti Osa, Lagos, 106104, Nigeria"
Hygeia Nigeria Limited,"Victoria Island , Lagos, Nigeria",234 (1) 4617071,,others,6.4300279,3.4259904,"Victoria Island, Itirin, Eti Osa, Lagos, 500001, Nigeria"
iFixng.com,"Lagos, Nigeria",+234(0) 802-089-3597,,others,6.4550575,3.3941795,"Lagos, Lagos Island, Lagos, 100242, Nigeria"
Kolex Hotels Ltd.,"1 Esanogbogun St. Shomolu. Lagos , Nigeria",01-5822552,,others,6.5315333,3.3804363,"Esanogbogun Street, Somolu, Shomolu, Lagos, 100231, Nigeria"
Nultan,"Lagos, Nigeria",+234 (0) 1 425 0000,,others,6.4550575,3.3941795,"Lagos, Lagos Island, Lagos, 100242, Nigeria"
Olu Akinkugbe Foundation Child Nutrition Centre,"Ogba , Lagos, Nigeria",+234 01 2715111,,others,6.621530266,3.328585139,"Ogba Road, Agege, Lagos, 100282, Nigeria"
Quarter Masters Branding,"16B, Mobolaji Bank Anthony Way, Ikeja, Lagos, Nigeria",01-7404420,,others,6.589729119,3.355109507,"Mobolaji Bank-Anthony Way, Oregun, Onigbongbo, Ikeja, Lagos, 100281, Nigeria"
Super Eagles,"SURULERE , Lagos, Nigeria",-5505,,others,6.4855737,3.353990695,"Surulere, Lagos, Nigeria"
Uba Pension Custodian Nig. Ltd,"30, Adeola Hopewell Street, Victoria Island, Lagos, Nigeria",01-2702630,,others,6.4367874,3.4293742,"Adeola Hopewell Street, Victoria Island, Itirin, Eti Osa, Lagos, 500001, Nigeria"
Ventra Media Group,"Lagos, Nigeria",+234 (0)816 136 2450,,others,6.4550575,3.3941795,"Lagos, Lagos Island, Lagos, 100242, Nigeria"
Crashpad,"Lagos, Nigeria",,,others,6.4550575,3.3941795,"Lagos, Lagos Island, Lagos, 100242, Nigeria"
Download Past Question,"Lagos, Nigeria",,,others,6.4550575,3.3941795,"Lagos, Lagos Island, Lagos, 100242, Nigeria"
HashByte,"Lagos, Nigeria",,,others,6.4550575,3.3941795,"Lagos, Lagos Island, Lagos, 100242, Nigeria"
"Heinrich Bll Foundation (hbf), Nigeria","/, Lagos, Nigeria",,,others,6.4550575,3.3941795,"Lagos, Lagos Island, Lagos, 100242, Nigeria"
ipayBTC,"Lagos, Nigeria",,,others,6.4550575,3.3941795,"Lagos, Lagos Island, Lagos, 100242, Nigeria"
SAVE n FLEX,"Lagos, Nigeria",,,others,6.4550575,3.3941795,"Lagos, Lagos Island, Lagos, 100242, Nigeria"
SendVillage,"Lagos, Nigeria",,,others,6.4550575,3.3941795,"Lagos, Lagos Island, Lagos, 100242, Nigeria"
Tecknoconsulting,"Yaba , Lagos, Nigeria",,,others,6.5114693,3.3699982,"Yaba, Olajuwon Street, Tinubu, Mushin, Lagos, 102215, Nigeria"
B. B. A. & CO. LTD,"Idumota. , Lagos, Nigeria",234 1 2666223 + 2668766,,others,6.4629402,3.3866909,"Idumota, Cater Bridge, Lagos, Lagos Island, Lagos, 100242, Nigeria"
Elite Security Services Limited T/A Integrated Fencing Systems,"Lagos , Nigeria",00234-1-4720211,,others,6.4550575,3.3941795,"Lagos, Lagos Island, Lagos, 100242, Nigeria"
GOING PLACES TRAVELS & TOURS LIMITED rc636985,"Ikeja , Lagos, Nigeria",01-721-4852,,others,6.5960605,3.340787,"Ikeja, Lagos, Nigeria"
Sea Horse (Nig.) Ltd.,"22 Burma Rd. Apapa Lagos , Nigeria",8037128437,,others,6.437047855,3.365489903,"Burma Road, Apapa, Lagos, 101001, Nigeria"
teammate nigeria limited,"lagos , Nigeria",234-1-3425048,,others,6.4550575,3.3941795,"Lagos, Lagos Island, Lagos, 100242, Nigeria"
VIER INVESTMENT (NIG.) LIMITED,"Lagos , Nigeria",01 79 299 47,,others,6.4550575,3.3941795,"Lagos, Lagos Island, Lagos, 100242, Nigeria"
INDUSTRIAL AUTOMATION NIG. LTD,"7, Unity Road, Ikeja, Lagos, Nigeria",8033358483,,others,6.594840761,3.345990745,"Unity Road, Ikeja, Lagos, 100281, Nigeria"
LAW UNION & ROCK INSURANCE (NIG) PLC,"88/92 Broad street, Lagos, Nigeria",01-2662245,,others,6.453685605,3.389255352,"Broad Street, Lagos, Lagos Island, Lagos, 101001, Nigeria"
NAL,"PMB 1001, NIGERIA, Lagos",(234) 587 49 16,,others,9.023047967,7.48640256,"Lagos Street, Garki II, Abuja, Municipal Area Council, Federal Capital Territory, 900211, Nigeria"
Policy Research Services,"Ikeja , Lagos, Nigeria",23414704479,,others,6.5960605,3.340787,"Ikeja, Lagos, Nigeria"
ACES AKINTOMIDE FARMS,"Lagos , Nigeria",18537344,,others,6.4550575,3.3941795,"Lagos, Lagos Island, Lagos, 100242, Nigeria"
ATLAS Systems,"Lagos, Nigeria",8035171616,,others,6.4550575,3.3941795,"Lagos, Lagos Island, Lagos, 100242, Nigeria"
Boss Papers Nig Ltd,"Lagos , Nigeria",01-804-2022,,others,6.4550575,3.3941795,"Lagos, Lagos Island, Lagos, 100242, Nigeria"
CONTEC Weighing Solutions,"Lagos, Nigeria",01 7751133,,others,6.4550575,3.3941795,"Lagos, Lagos Island, Lagos, 100242, Nigeria"
Desgn & Kraft Coompany,"lagos , Nigeria",8023010146,,others,6.4550575,3.3941795,"Lagos, Lagos Island, Lagos, 100242, Nigeria"
Geo-Kena Nig. Company Geo-Kena Computers,"Lagos , Nigeria",01-7756971,,others,6.4550575,3.3941795,"Lagos, Lagos Island, Lagos, 100242, Nigeria"
Interdependent Industries Ltd,"Ikorodu , Lagos, Nigeria",01-4727550,,others,6.6191233,3.5041271,"Ìkòròdú, Lagos, Nigeria"
Jextoban Secondary School,"Lagos , Nigeria",+234(0)14359057,,others,6.4550575,3.3941795,"Lagos, Lagos Island, Lagos, 100242, Nigeria"
konsol educational organisation,"lagos , Nigeria",8114862,,others,6.4550575,3.3941795,"Lagos, Lagos Island, Lagos, 100242, Nigeria"
Lekoye Nigeria Enterprises,"Ikeja , Lagos, Nigeria",234-8062594376,,others,6.5960605,3.340787,"Ikeja, Lagos, Nigeria"
LEO-ELA INTERNATIONAL LTD,"Lagos , Nigeria",234-01-8127595,,others,6.4550575,3.3941795,"Lagos, Lagos Island, Lagos, 100242, Nigeria"
Messrs. Adeniji & Oyelola,"Lagos, Nigeria",2661879; 8932644,,others,6.4550575,3.3941795,"Lagos, Lagos Island, Lagos, 100242, Nigeria"
Nostrum Consulting,"Lagos , Nigeria",18042022,,others,6.4550575,3.3941795,"Lagos, Lagos Island, Lagos, 100242, Nigeria"
Oladipo Bookshops,"Lagos, Nigeria",8036948436,,others,6.4550575,3.3941795,"Lagos, Lagos Island, Lagos, 100242, Nigeria"
O to go (commercial Facilitators Ltd),"Lagos , Nigeria",01 725 0550,,others,6.4550575,3.3941795,"Lagos, Lagos Island, Lagos, 100242, Nigeria"
SOFTBASE BUSINESS SOLUTIONS,"14 Olaniji st oregun ikeja , Lagos, Nigeria",17237868,,others,6.601994543,3.361872161,"Olaniji Street, Oregun, Alausa, Ikeja, Lagos, 100581, Nigeria"
world vision business point,"oworonsoki , Lagos, Nigeria",14818337,,others,6.5502091,3.4021999,"Oworonṣoki, Kosofe, Lagos, 100234, Nigeria"
A.A.A. Comm. Ltd.,"6 Palm Av. Mushin Lagos , Nigeria",01-520448,,others,6.533516543,3.344986692,"Palm Avenue, Mushin, Lagos, 102215, Nigeria"
A. Adeolu Busi. Centr.,"S/Lere Lagos , Nigeria",01-5850273,,others,6.5024582,3.3590279,"Surulere, Lagos, 102215, Nigeria"
Abayomi Stores Ltd.,"109, Alakoro St., Lagos , Nigeria",01-2662095,,others,6.461694939,3.384453227,"Alakoro Marina Street, Lagos, Lagos Island, Lagos, 101001, Nigeria"
Abbot Lab. (Nig.) Ltd.,"196 Allen Ave. Ikeja Lagos , Nigeria",01-4960763,,others,6.60163849,3.352051473,"Allen Avenue, Oregun, Alausa, Ikeja, Lagos, 100282, Nigeria"
Abdul Ganiyu Aremu and Bros.,"12 Idumagbo Ave. Lagos , Nigeria",01-2668542,,others,6.458894469,3.390460814,"Idumagbo Avenue, Lagos, Lagos Island, Lagos, 100242, Nigeria"
Abdalla Haulage Sers.,"14, Wharf Rd., Apapa. Lagos , Nigeria",01-5873378,,others,6.446344223,3.372340577,"Wharf Road, Ilado, Apapa, Lagos, 101001, Nigeria"
Abis Restaurant,"10 Bamgbose St. Lagos , Nigeria",01-2633154 01-2652675,,others,6.53465865,3.2631497,"Bamgbose Street, Alimosho, Lagos, 100263, Nigeria"
Abiade Lawal Trading Co.,"16, Tokunbo St., Lagos , Nigeria",01-265815,,others,6.501263569,3.382086333,"Tokunbo Street, Ebute-Metta, Lagos Mainland, Lagos, 104233, Nigeria"
Abinbola Stores,"33C Shitta St Lagos , Nigeria",01-2664013,,others,6.612061862,3.315604464,"Shitta Street, Akowonjo, Agege, Lagos, 100282, Nigeria"
Abiodun Future-Links Industrial Empire,"1 Alade Street, Oshodi, Lagos, Nigeria",-8957920,,others,6.540592912,3.313128555,"Alade Apatira Street, Oshodi/Isolo, Lagos, 100263, Nigeria"
Aboderin & Giaha Nig. Ltd.,"208/212 Broad St., Lagos, Nigeria",01-2661432,,others,6.453685605,3.389255352,"Broad Street, Lagos, Lagos Island, Lagos, 101001, Nigeria"
AB.S. Tradg. Co. Nig. Ltd.,"30, Nnamdi Azikiwe St., Lagos , Nigeria",01-2668471,,others,6.456096762,3.38823224,"Nnamdi Azikiwe Street, Lagos, Lagos Island, Lagos, 101001, Nigeria"
A.B. Shoe Factory,"8A Bishop St. Lagos , Nigeria",01-2635609,,others,6.552882411,3.359044596,"Bishop Street, Mushin, Lagos, 100232, Nigeria"
Abusi O1u Tradg. & Co.,"1, Macaulay St., Lagos , Nigeria",01-2631320,,others,6.48325545,3.3857514,"Herbert Macaulay Street, Ebute-Metta, Lagos Mainland, Lagos, 104233, Nigeria"
Acceptance Constr Ltd.,"Lagos, Nigeria",01-921165,,others,6.4550575,3.3941795,"Lagos, Lagos Island, Lagos, 100242, Nigeria"
A.C. Electrical,"153 Agege Motor Rd. Mushin Lagos , Nigeria",01-5834748.,,others,6.552375057,3.353210289,"Agege Motor Road, Tinubu, Ikeja, Mushin, Lagos, 100271, Nigeria"
Action Forwarding Sers.,"69 Palm Ave. Mushin Lagos , Nigeria",01-522576,,others,6.533516543,3.344986692,"Palm Avenue, Mushin, Lagos, 102215, Nigeria"
Adamu Alh. Tradg. & Constr.,"23B, Ibadan St., Lagos , Nigeria",01-5874001,,others,6.482439251,3.376116768,"Ibadan Street, Alagbede, Surulere, Lagos, 102215, Nigeria"
ADC System Ltd.,"84 Opebi Rd. Ikeja, Lagos , Nigeria",01-4965750,,others,6.591133088,3.359872425,"Opebi Road, Oregun, Ikeja, Lagos, 100281, Nigeria"
ADEXCO & ASSOCIATE,"43 Demurin Street, Lagos, Lagos, Nigeria",234-8053729482,,others,6.59618547,3.398114029,"Demurin Street, Orisigun, Kosofe, Lagos, 100247, Nigeria"
Ade Bola Builders,"135 Igbosere Rd , Lagos, Nigeria",01-2633272,,others,6.450909463,3.398410829,"Igbosere Road, Lagos, Lagos Island, Lagos, 100242, Nigeria"
Ade Giwa Constr.,"Lagos, Nigeria",01-2664519,,others,6.4550575,3.3941795,"Lagos, Lagos Island, Lagos, 100242, Nigeria"
Adeb Alum. Pro. Nig. Ltd.,"94A Adeniyi Jones Av. Ikeja , Lagos, Nigeria",01-4973321,,others,6.611372248,3.345193435,"Adeniyi Jones Avenue, Alausa, Ikeja, Lagos, 100282, Nigeria"
Adebanji J.O.,"46, Balogun St., Lagos, Nigeria",01-2635224,,others,6.512045981,3.339189052,"Balogun Street, Mushin, Lagos, 102215, Nigeria"
Adebayo Olusegun & Co.,"26, Allen Ave., Ikeja, Lagos, Nigeria",01-4967195,,others,6.59882265,3.35370705,"ASHA, 26, Allen Avenue, Oregun, Alausa, Ikeja, Lagos, 100281, Nigeria"
Adebunkola Madam Stores,"Lagos, Nigeria",01-2660764,,others,6.4550575,3.3941795,"Lagos, Lagos Island, Lagos, 100242, Nigeria"
Adelma Constr. Co. Ltd.,"Lagos, Nigeria",01-4961635,,others,6.4550575,3.3941795,"Lagos, Lagos Island, Lagos, 100242, Nigeria"
Ademuyiwa Bookshops,"98, Lewis St., Lagos, Nigeria",01-2634440,,others,6.449285409,3.406028642,"Lewis Street, Lagos, Lagos Island, Lagos, 101222, Nigeria"
Adeniyi Tailorg,"21 Adeyemi St. Agege, Lagos, Nigeria",01-4933087,,others,6.621052134,3.32779472,"Adeyemi Street, Agege, Lagos, 100282, Nigeria"
Adeola Tech. Eng. Co.,"49, Princess St., Lagos, Nigeria",01-631899,,others,6.461508159,3.39304277,"Princess Street, Lagos, Lagos Island, Lagos, 100242, Nigeria"
Adepase Tech. Co. Ltd.,"18, Bishop St., Lagos, Nigeria",01-2663403/01-2660853,,others,6.552882411,3.359044596,"Bishop Street, Mushin, Lagos, 100232, Nigeria"
Adessy Stationery Co. Ltd.,"7, Ricca St, Lagos, Nigeria",01-2631268,,others,6.454048984,3.39475609,"Ricca Street, Lagos, Lagos Island, Lagos, 100242, Nigeria"
Adewakun Morakinyo & Co.,"208/212 Broad St., Lagos, Nigeria",01-2661590,,others,6.455583255,3.384115846,"Broad Street, Lagos, Lagos Island, Lagos, 101001, Nigeria"
Adeyemi Tradg. Co. Ltd.,"11, Ashogbon St., Lagos , Nigeria",01-2668952,,others,6.60807047,3.343843939,"Ashogbon Street, Alausa, Ikeja, Lagos, 100282, Nigeria"
Aderson Ind. Tradg. Co. Ltd.,"129, Agege Motor Rd., Oshodi Lagos , Nigeria",01-4934067,,others,6.552375057,3.353210289,"Agege Motor Road, Tinubu, Ikeja, Mushin, Lagos, 100271, Nigeria"
Adeleye Commercial Electrical,"169 Agege Motor Rd. Mushin Lagos , Nigeria",01-520583,,others,6.552375057,3.353210289,"Agege Motor Road, Tinubu, Ikeja, Mushin, Lagos, 100271, Nigeria"
Adeleye Electronics Ind. Ltd.,"173 Agege Motor Rd. Mushin Lagos , Nigeria",01-4257850,,others,6.552375057,3.353210289,"Agege Motor Road, Tinubu, Ikeja, Mushin, Lagos, 100271, Nigeria"
Adewusi V. A.,"1st Ave., 111 Rd., ft. 15, Festac, Lagos , Nigeria",01-5880752,,others,6.479205715,3.288850823,"1st Avenue, Festac Town, Amuwo Odofin, Lagos, 102102, Nigeria"
Adeodu Tech. Sers.,"23 Oguntolu St. Lagos , Nigeria",01-5823118 01-4963148,,others,6.536788968,3.370681852,"Oguntolu Street, Somolu, Shomolu, Lagos, 100231, Nigeria"
Adeowo Supermarket,"24 Arowojobe St.Lagos , Nigeria",01-4931493,,others,6.563459966,3.342153661,"Arowojobe Street, Oshodi/Isolo, Lagos, 100271, Nigeria"
Adebayo Horological Co. Ltd.,"27, Tapa St., Lagos , Nigeria",01-2636672,,others,6.454226776,3.403834136,"Tapa Street, Lagos, Lagos Island, Lagos, 100242, Nigeria"
Adelaja Tradg Co,"30 Princess St. Lagos , Nigeria",01-2636205,,others,6.461508159,3.39304277,"Princess Street, Lagos, Lagos Island, Lagos, 100242, Nigeria"
Adesanya J A Stores,"37 Breadfruit St. Lagos , Nigeria",01-2661629,,others,6.455964107,3.386198329,"Breadfruit Street, Lagos, Lagos Island, Lagos, 101001, Nigeria"
Adekanye Olubuade Stores,"49 Docemo St. Lagos , Nigeria",01-2660525,,others,6.460647459,3.388079365,"Docemo Street, Lagos, Lagos Island, Lagos, 100242, Nigeria"
Adesanwo Electrical Store,"5 Onibudo St. Lagos , Nigeria",01-662586,,others,6.435496236,3.428422679,"Ahmed Onibudo Street, Victoria Island, Itirin, Eti Osa, Lagos, 500001, Nigeria"
ADESEGUN MOHAMMED AJIBOLA,"52 ALLEN AVENUE IKEJA , Lagos, Nigeria",01-4938295/01-4938295,,others,6.60163849,3.352051473,"Allen Avenue, Oregun, Alausa, Ikeja, Lagos, 100282, Nigeria"
Ade Olu Clinic and Maternity Home,"55 Isheri Rd. Lagos , Nigeria",01-4961818,,others,6.63962399,3.357425211,"Isheri Road, Aguda, Ikeja, Ifo, Lagos, 100581, Nigeria"
Adeola Hosp. and Clinic,"72 Airport Rd. Ikeja Lagos , Nigeria",01-4960745,,others,6.587928964,3.33373456,"Airport Road, Ikeja, Lagos, 100282, Nigeria"
Adeu Medical and Scientific Co. Ltd.,"72 Palm Av. Mushin Lagos , Nigeria",01-5835572,,others,6.53630584,3.353640152,"Palm Avenue, Mushin, Lagos, 100231, Nigeria"
A.D Gulab (Nig.) Ltd.,"49, Martins St., Lagos, Nigeria",01-2666571,,others,6.509872684,3.36715741,"Martins Street, Tinubu, Mushin, Lagos, 102215, Nigeria"
Adio Eng. Works.,"1 Idumagbo Av. , Lagos, Nigeria",01-2636413,,others,6.460124375,3.395249814,"Idumagbo Avenue, Lagos, Lagos Island, Lagos, 100242, Nigeria"
Adison Nig. Bookshop,"Lagos, Nigeria",01-2666494,,others,6.4550575,3.3941795,"Lagos, Lagos Island, Lagos, 100242, Nigeria"
Adios Hotel,"106 Shipeolu St. Shomolu Lagos , Nigeria",01-5821031,,others,6.538790179,3.368466195,"Shipeolu Street, Somolu, Shomolu, Lagos, 100231, Nigeria"
Adimson Comsade Electrical Co.,"8 Agarawu St. Lagos , Nigeria",01-669539,,others,6.45826388,3.388560923,"Agarawu Street, Lagos, Lagos Island, Lagos, 100242, Nigeria"
Adrisco Unisex Salon,"Lagos, Nigeria",0l-2631617,,others,6.4550575,3.3941795,"Lagos, Lagos Island, Lagos, 100242, Nigeria"
Adurat Tech. Co.,"71, Jebba St., Ebute Metta, Lagos, Nigeria",01-5860294,,others,6.485220699,3.38696939,"Jebba Street, Ebute-Metta, Lagos Mainland, Lagos, 104233, Nigeria"
Aduroja S.O. & Bros.,"28, Docemo St., Lagos , Nigeria",01-2660108,,others,6.460647459,3.388079365,"Docemo Street, Lagos, Lagos Island, Lagos, 100242, Nigeria"
Advertisers Asson. of Nig. (ADVAN),"Box 1063 Ikeja, Lagos, Nigeria",01-4901030,,others,6.5977286,3.340209127,"New Horizons Nigeria Ikeja Campus, Oba Akran Avenue, Ikeja, Lagos, 100282, Nigeria"
Advance Screen Printer,"310 Agege Motor Rd. Mushin Lagos , Nigeria",01-524393,,others,6.544255547,3.356419582,"Agege Motor Road, Tinubu, Mushin, Lagos, 100231, Nigeria"
Advance Micro Tech. Ltd.,"43, Toyin St. Ikeja, Lagos , Nigeria",01-619287,,others,6.596005518,3.351082574,"Toyin Street, Oregun, Ikeja, Lagos, 100281, Nigeria"
Ael Courier Sers. c\o Wahsun (Nig.) Ltd.,"11, Calcutta Cres., Lagos , Nigeria",01-5871594,,others,6.440410189,3.365348356,"Calcutta Crescent, Ilado, Apapa, Lagos, 101001, Nigeria"
Afastra Nig. Ltd.,"8 Kodesoh St. Ikeja Lagos , Nigeria",01-4971769 01-4961347,,others,6.594014,3.342019776,"Kodesoh Street, Ikeja, Lagos, 100282, Nigeria"
Afdrolu & Aviation Ltd.,"44, Ewu Rd., Oshodi, Lagos, Nigeria",01-4933398,,others,6.553160908,3.331825448,"Ewu Road, Oshodi/Isolo, Lagos, 100263, Nigeria"
Afi s Restaurant,"5 Olufemi Street, Surulere, Lagos. , Nigeria",234 1 8501891,,others,6.506438512,3.350391685,"Olufemi Street, Surulere, Lagos, 102215, Nigeria"
Aflrcan Ind. Dev. Ltd.,"45 Odunlami St. Lagos , Nigeria",01-2631699,,others,6.452122111,3.391610614,"Odunlami Street, Lagos, Lagos Island, Lagos, 101001, Nigeria"
Afolabi Asso-Constr. Eng.,"Lagos, Nigeria",01-4967918,,others,6.4550575,3.3941795,"Lagos, Lagos Island, Lagos, 100242, Nigeria"
Africaire Nigeria,"38 Adeola Hopewell Street, Victoria Island, Lagos, Lagos, Nigeria",+234 1 2620648,,others,6.437099609,3.429361549,"Adeola Hopewell Street, Victoria Island, Itirin, Eti Osa, Lagos, 500001, Nigeria"
African Groundnut Council,"94 Awolowo Rd., Ikoyi , Lagos, Nigeria",01-680639 / 01-680572 / 01-5887811,,others,6.442498899,3.420563038,"Awolowo Road, Ikoyi, Falomo, Eti Osa, Lagos, 101241, Nigeria"
African Packing Co. Ltd.,"Oba Akran Av., Lagos, Nigeria",01-4900490,,others,6.597083741,3.340951092,"Oba Akran Avenue, Ikeja, Lagos, 100282, Nigeria"
Afrotech Tech. Sers. Nig. Ltd.,"129, Adeniyi Jones Ave., Ikeja, Lagos, Nigeria",01-4932944,,others,6.611372248,3.345193435,"Adeniyi Jones Avenue, Alausa, Ikeja, Lagos, 100282, Nigeria"
Afrowater Nig Ltd.,"13B, Hinderer Rd., Apapa, Lagos, Nigeria",0I-5871302,,others,6.443725034,3.354529181,"Hinderer Road, Apapa, Lagos, 101001, Nigeria"
African Exporter Ltd.,"10/12 Military St. Lagos , Nigeria",01-2632589,,others,6.445098718,3.403383512,"Military Street, Lagos, Lagos Island, Lagos, 101241, Nigeria"
African Era and Co. Ltd.,"13A Obafemi Awolowo Wy. Ikeja Lagos , Nigeria",01-4961395 01-4963046,,others,6.602383275,3.344455913,"Obafemi Awolowo Way, Alausa, Ikeja, Lagos, 100282, Nigeria"
Agbarha Constrs. Nig Ltd.,"Lagos, Nigeria",01-2635171,,others,6.4550575,3.3941795,"Lagos, Lagos Island, Lagos, 100242, Nigeria"
Agbodeha Food Canteen.,"34 Breadfruit St. Lagos , Nigeria",01-2669923,,others,6.455964107,3.386198329,"Breadfruit Street, Lagos, Lagos Island, Lagos, 101001, Nigeria"
Agbeniyi & Qyebayi Tradg. Co.,"4, Ajayi Bembe St., Lagos , Nigeria",01-2666931,,others,6.460606669,3.444948699,"Laiyi Ajayi Bembe Street, Parkview Estate, Falomo, Eti Osa, Lagos, 105102, Nigeria"
Ageso Eng. Works Ltd.,"Lagos, Nigeria",01-4962270,,others,6.4550575,3.3941795,"Lagos, Lagos Island, Lagos, 100242, Nigeria"
Agee Tradg Co.,"25, Church St., Lagos , Nigeria",01-2660091,,others,6.5155336,3.3305739,"Church Street, Oshodi/Isolo, Lagos, 102215, Nigeria"
Agnel Drug Co.,"17 Calcutta Cres. Apapa Lagos , Nigeria",01-5876829,,others,6.4404888,3.3655326,"Calcutta Crescent, Ilado, Apapa, Lagos, 101001, Nigeria"
Agricmec Eng Co. Ltd.,"Lagos, Nigeria",01-5832296,,others,6.4550575,3.3941795,"Lagos, Lagos Island, Lagos, 100242, Nigeria"
Agricultural Managt. & Tech. Sers. Ltd.,"49, Payne Cres. Box 1396, Apapa , Lagos, Nigeria",01-5874030,,others,6.442256,3.3706261,"Payne Crescent, Ilado, Apapa, Lagos, 101001, Nigeria"
Agrimech Nig. Ltd.,"9, Calcutta Cres. Apapa, Lagos, Nigeria",01-5873327,,others,6.4404888,3.3655326,"Calcutta Crescent, Ilado, Apapa, Lagos, 101001, Nigeria"
Agritec Nig. Ltd.,"17, Adeniyi Jones Ave., Ikeja, Lagos, Nigeria",01-4967109,,others,6.611372248,3.345193435,"Adeniyi Jones Avenue, Alausa, Ikeja, Lagos, 100282, Nigeria"
Agro Sers. Ltd.,"20A Mainland Wy. Dolphin Ikoyi , Lagos, Nigeria",01-682386,,others,6.4583908,3.4155679,"Mainland Way, Dolphin Estate, Ikoyi, Eti Osa, Lagos, 101222, Nigeria"
Agulefo Tradg. Co.,"23, Pedro St., Lagos , Nigeria",01-668872,,others,6.5081834,3.3907015,"Pedro Street, Lagos Mainland, Lagos, 104233, Nigeria"
Ahmadiya Clinic,"28 Payne Cres. Apapa Lagos , Nigeria",01-5873958,,others,6.442256,3.3706261,"Payne Crescent, Ilado, Apapa, Lagos, 101001, Nigeria"
AIkhENA Jarna (Nig.) Enterps. Ltd.,"Box 4284 Lagos Island , Nigeria",01-2642624,,others,6.4475162,3.397808,"Internet Exchange Point of Nigeria, 6, Broad Street, Lagos, Lagos Island, Lagos, 100242, Nigeria"
Aircom. Aircom plaza:,"57A, Adeniyi Jones Ave., Ikeja, Lagos, Nigeria",01-4937170,,others,6.611372248,3.345193435,"Adeniyi Jones Avenue, Alausa, Ikeja, Lagos, 100282, Nigeria"
Air Cail N19. Ltd.,"206, Ikorodu Rd., Lagos , Nigeria",01-4524514,,others,6.611512947,3.419138798,"Ikorodu Road, Erukan, Odogun, Kosofe, Lagos, 100247, Nigeria"
Aix Hospt.,"3 Aromire St. Ikeja Lagos , Nigeria",01-4965558,,others,6.6092434,3.3468001,"Aromire Street, Alausa, Ikeja, Lagos, 100282, Nigeria"
Ajagwu N E Tradg. Co.,"12, Okepopo St., Lagos , Nigeria",01-632478,,others,6.4559271,3.3959705,"Okepopo Street, Lagos, Lagos Island, Lagos, 100242, Nigeria"
Ajassepo Tradg. Stores,"32, Okepopo St., Lagos , Nigeria",01-630510,,others,6.4559271,3.3959705,"Okepopo Street, Lagos, Lagos Island, Lagos, 100242, Nigeria"
Ajeniya Ind Group (Nig.) Ltd.,"l9, Idumagbo Ave. 7941, Lagos, Nigeria",01-2635251,,others,6.4589123,3.3902907,"Idumagbo Avenue, Lagos, Lagos Island, Lagos, 100242, Nigeria"
AJibade Bada,"40, kakawa St., Lagos, Nigeria",01-2636178,,others,6.4520648,3.3886438,"Kakawa Street, Lagos, Lagos Island, Lagos, 101001, Nigeria"
Akade Inter. Constr. Nig. Ltd.,"Lagos, Nigeria",01-5845187,,others,6.4550575,3.3941795,"Lagos, Lagos Island, Lagos, 100242, Nigeria"
Akerele Abis & Sons,"23, Calcutta Cres. Apapa, Lagos, Nigeria",01-5874937,,others,6.4404888,3.3655326,"Calcutta Crescent, Ilado, Apapa, Lagos, 101001, Nigeria"
Akesode Nig. Builders,"8, Andrew St., Lagos, Nigeria",01-2651925,,others,6.4533433,3.3954486,"Andrew Street, Lagos, Lagos Island, Lagos, 100242, Nigeria"
Akin Graig & Partners,"53, Lawanson St., Box 7818, Lagos, Nigeria",01-635208,,others,6.5516475,3.3396909,"Akin-Lawanson Street, Oshodi/Isolo, Lagos, 100271, Nigeria"
Akinde Tailorg Sers.,"9 Ajanaku St., Lagos, Nigeria",01-2631281,,others,6.586775832,3.364784353,"Ajanaku Street, Oshosun, Ikeja, Lagos, 100211, Nigeria"
Akingbade Lekan & Co.,"22, Unity Rd., Ikeja, Lagos, Nigeria",01-4973806,,others,6.5976386,3.3459336,"Unity Road, Alausa, Ikeja, Lagos, 100282, Nigeria"
Akinjide S. B. Tailorg Sers,"9, Ajanaku St., Lagos, Nigeria",01-2631281,,others,6.586775832,3.364784353,"Ajanaku Street, Oshosun, Ikeja, Lagos, 100211, Nigeria"
Akintola Afolabi & Co.,"6, Catholic Mission St., Box 2347 , Lagos, Nigeria",01-636224,,others,6.4501737,3.3968824,"Catholic Mission Street, Lagos, Lagos Island, Lagos, 100242, Nigeria"
Akin-Jackson (Nig.) Co. Ltd.,"23, Hawley St., Lagos , Nigeria",01-2630127,,others,6.4525116,3.4039325,"Hawley Street, Lagos, Lagos Island, Lagos, 100242, Nigeria"
Akklaims Telecomms. Ltd.,"7 Norman Williams St., Ikoyi, Lagos, Nigeria",01-2695388,,others,6.443786365,3.417672516,"Norman Williams Street, Ikoyi, Eti Osa, Lagos, 101241, Nigeria"
Akuniwo B. A. & Co. Bronco Trans,"20, Ado Ave., Lagos , Nigeria",01-5871988,,others,6.4426678,3.3717828,"Ado Avenue, Ilado, Apapa, Lagos, 101001, Nigeria"
ALABA OLUWOLE ENTERPRISES,"09 Randle, Lagos, Lagos, Nigeria",234-8023160536,,others,6.508461695,3.356957731,"Randle Avenue, Surulere, Lagos, 102215, Nigeria"
ALABA RENTAL SERVICES,"13 Abina Street, Lagos, Lagos, Nigeria",234-8024565704,,others,6.505820364,3.357874361,"Abina Street, Surulere, Lagos, 102215, Nigeria"
Alakson Eng. (Nig.) Ltd.,"16, Seriki-Aro Ave., Box 7748, Ikeja Lagos , Nigeria",01-4960592,,others,6.600995808,3.339654513,"Seriki Aro Avenue, Ikeja, Lagos, 100282, Nigeria"
Albarka Air Sers,"Murtala Mohammed Airport, Lagos, Nigeria",01- 4939040,,others,6.57431745,3.320850367,"Murtala Mohammed International Airport, International Airport Road, Ikeja, Lagos, 100263, Nigeria"
Albert Tech. W A Ltd.,"1 Ikorodu Rd. Ikeja, Lagos, Nigeria",01-4977628,,others,6.57279685,3.367550694,"The Elevation Church Mainland, 1A, Ikorodu Road, Onigbongbo, Ikeja, Lagos, 101233, Nigeria"
Albion Constr. Nig. Ltd.,"Lagos, Nigeria",01-5801221,,others,6.4550575,3.3941795,"Lagos, Lagos Island, Lagos, 100242, Nigeria"
ALEXIA'S WHOLESALE & SUPPLIES LIMITED,"25B, Admiralty Road PMB 2341, Lagos, Lagos, Nigeria",234 709 261 8445,,others,6.453822607,3.470105684,"Admiralty Road, Moba, Eti Osa, Lagos, 105102, Nigeria"
Alebiosu Bookshop Nig. Ltd.,"l, Turton St., Lagos, Nigeria",01-2634158,,others,6.5069199,3.3743912,"Turton Street, Lagos Mainland, Lagos, 102215, Nigeria"
Aliban Grop.,"Ikorodu Rd., Ikeja , Lagos, Nigeria",01-4966929,,others,6.545330526,3.36708371,"Ikorodu Road, Tinubu, Ikeja, Mushin, Lagos, 100231, Nigeria"
Alistar McCowan & Assoc. Nig. Ltd.,"131, Broad St., Lagos , Nigeria",01-661271,,others,6.455583255,3.384115846,"Broad Street, Lagos, Lagos Island, Lagos, 101001, Nigeria"
Alikamal Tradg. Co.,"Docemo St., Lagos , Nigeria",01-613764,,others,6.460647459,3.388079365,"Docemo Street, Lagos, Lagos Island, Lagos, 100242, Nigeria"
Allwell Hair Dressing Salon.,"Lagos, Nigeria",01-5883788,,others,6.4550575,3.3941795,"Lagos, Lagos Island, Lagos, 100242, Nigeria"
All Trade Nig.,"127 Awolowo Way, Ikeja Lagos , Nigeria",01-4937146,,others,6.602383275,3.344455913,"Obafemi Awolowo Way, Alausa, Ikeja, Lagos, 100282, Nigeria"
AllWys Secu. Ltd.,"241 Igbosere Rd. Lagos , Nigeria",01-2637662,,others,6.450909463,3.398410829,"Igbosere Road, Lagos, Lagos Island, Lagos, 100242, Nigeria"
All Trade Ventures,"27 Lagos , Nigeria",01-4973870,,others,6.4550575,3.3941795,"Lagos, Lagos Island, Lagos, 100242, Nigeria"
All States Tradg. Co. Nig. Ltd.,"46, Awolowo Rd., Ikoyi, Lagos , Nigeria",01-2687835,,others,6.442498899,3.420563038,"Awolowo Road, Ikoyi, Falomo, Eti Osa, Lagos, 101241, Nigeria"
